{
  "generatedAt": "2026-01-01T22:37:12.383Z",
  "totalStores": 1386,
  "storeTypes": {
    "Repair Depot": 26,
    "Virtual Experience": 153,
    "Pooled Labor": 46,
    "Big Box": 886,
    "Specialty Labor": 34,
    "Custom": 67,
    "Yardbird Showroom": 22,
    "Unknown": 42,
    "Outlet Center": 18,
    "Geek Squad Call Center": 10,
    "Auto Tech Bay": 1,
    "Refurb Open Box FFL": 4,
    "Online Return Center": 2,
    "Not Used": 48,
    "Dotcom Locations": 2,
    "Marketplace Seller": 3,
    "Warehouse Sale": 2,
    "PAC Standalone Store": 20
  },
  "storesByState": {
    "PR": 7,
    "MA": 30,
    "RI": 2,
    "NH": 8,
    "ME": 3,
    "VT": 1,
    "CT": 11,
    "NJ": 35,
    "NY": 58,
    "PA": 39,
    "DE": 3,
    "DC": 1,
    "VA": 35,
    "MD": 27,
    "WV": 6,
    "NC": 43,
    "SC": 15,
    "GA": 41,
    "FL": 84,
    "AL": 12,
    "TN": 17,
    "MS": 7,
    "KY": 24,
    "OH": 49,
    "IN": 24,
    "MI": 33,
    "IA": 10,
    "WI": 26,
    "MN": 129,
    "SD": 2,
    "ND": 4,
    "MT": 4,
    "IL": 50,
    "MO": 24,
    "KS": 10,
    "NE": 4,
    "LA": 20,
    "AR": 7,
    "OK": 19,
    "TX": 132,
    "CO": 30,
    "WY": 1,
    "ID": 6,
    "UT": 14,
    "AZ": 29,
    "NM": 5,
    "NV": 12,
    "CA": 177,
    "HI": 7,
    "OR": 15,
    "WA": 31,
    "AK": 3
  },
  "stores": [
    {
      "id": 1358,
      "type": "Repair Depot",
      "name": "PUERTO RICO SRV CTR",
      "address": "ROAD #1 KM 28.6",
      "address2": null,
      "city": "CAGUAS",
      "state": "PR",
      "zip": "00725",
      "fullZip": "00725",
      "country": "US",
      "lat": 18.0142395,
      "lng": -66.589754,
      "phone": "787-653-5891"
    },
    {
      "id": 9761,
      "type": "Virtual Experience",
      "name": "VS Xdock 1359 PR DLV",
      "address": "ROAD #1 KM 28.6",
      "address2": null,
      "city": "CAGUAS",
      "state": "PR",
      "zip": "00725",
      "fullZip": "00725",
      "country": "PR",
      "lat": null,
      "lng": null,
      "phone": "999-999-9999"
    },
    {
      "id": 9776,
      "type": "Virtual Experience",
      "name": "VS Xdock 1359 PR PKU",
      "address": "ROAD #1 KM 28.6",
      "address2": null,
      "city": "CAGUAS",
      "state": "PR",
      "zip": "00725",
      "fullZip": "00725",
      "country": "PR",
      "lat": null,
      "lng": null,
      "phone": "999-999-9999"
    },
    {
      "id": 1875,
      "type": "Pooled Labor",
      "name": "PUERTO RICO PLD LBR",
      "address": "230 CAL FEDERICO COSTA ST",
      "address2": null,
      "city": "HATO REY",
      "state": "PR",
      "zip": "00917",
      "fullZip": "00917-1923",
      "country": "PR",
      "lat": null,
      "lng": null,
      "phone": "999-999-9999"
    },
    {
      "id": 1118,
      "type": "Big Box",
      "name": "HATO REY PR",
      "address": "230 Calle Federico Costa",
      "address2": "Hato Rey",
      "city": "San Juan",
      "state": "PR",
      "zip": "00918",
      "fullZip": "00918-1355",
      "country": "PR",
      "lat": 18.42491,
      "lng": -66.07171,
      "phone": "787-764-4900"
    },
    {
      "id": 7028,
      "type": "Specialty Labor",
      "name": "RP Puerto Rico",
      "address": "230 Calle Federico Costa",
      "address2": "Hato Rey",
      "city": "San Juan",
      "state": "PR",
      "zip": "00918",
      "fullZip": "00918-1355",
      "country": "PR",
      "lat": 18.41565,
      "lng": -66.06277,
      "phone": "999-999-9999"
    },
    {
      "id": 1090,
      "type": "Big Box",
      "name": "RIO HONDO PR",
      "address": "60 Ave Rio Hondo",
      "address2": "Ste 60",
      "city": "Bayamon",
      "state": "PR",
      "zip": "00961",
      "fullZip": "00961-3106",
      "country": "PR",
      "lat": 18.42205,
      "lng": -66.16304,
      "phone": "787-522-0999"
    },
    {
      "id": 418,
      "type": "Big Box",
      "name": "HOLYOKE MALL MA",
      "address": "50 Holyoke St",
      "address2": null,
      "city": "Holyoke",
      "state": "MA",
      "zip": "01040",
      "fullZip": "01040-2709",
      "country": "US",
      "lat": 42.16931,
      "lng": -72.64198,
      "phone": "413-533-4443"
    },
    {
      "id": 1433,
      "type": "Big Box",
      "name": "LEOMINSTER MA",
      "address": "33 Orchard Hill Park Dr",
      "address2": null,
      "city": "Leominster",
      "state": "MA",
      "zip": "01453",
      "fullZip": "01453-7019",
      "country": "US",
      "lat": 42.52481,
      "lng": -71.7124,
      "phone": "978-537-9042"
    },
    {
      "id": 2506,
      "type": "Big Box",
      "name": "MILLBURY MA",
      "address": "70 Worcester Providence Tpke",
      "address2": "Ste 140",
      "city": "Millbury",
      "state": "MA",
      "zip": "01527",
      "fullZip": "01527-2652",
      "country": "US",
      "lat": 42.19513,
      "lng": -71.77617,
      "phone": "508-421-9149"
    },
    {
      "id": 1874,
      "type": "Pooled Labor",
      "name": "USO BOSTON",
      "address": "1 WORCESTER RD",
      "address2": null,
      "city": "FRAMINGHAM",
      "state": "MA",
      "zip": "01701",
      "fullZip": "01701-5359",
      "country": "US",
      "lat": null,
      "lng": null,
      "phone": "999-999-9999"
    },
    {
      "id": 532,
      "type": "Big Box",
      "name": "FRAMINGHAM MA",
      "address": "1 Worcester Rd",
      "address2": "Best Buy Ste 23",
      "city": "Framingham",
      "state": "MA",
      "zip": "01701",
      "fullZip": "01701-5359",
      "country": "US",
      "lat": 42.3007,
      "lng": -71.39618,
      "phone": "508-872-2223"
    },
    {
      "id": 6567,
      "type": "Custom",
      "name": "BOSTON CUSTOM",
      "address": "1 Worcester Rd",
      "address2": null,
      "city": "Framingham",
      "state": "MA",
      "zip": "01701",
      "fullZip": "01701-5359",
      "country": "US",
      "lat": null,
      "lng": null,
      "phone": "999-999-9999"
    },
    {
      "id": 2184,
      "type": "Yardbird Showroom",
      "name": "YB Framingham MA",
      "address": "100 Worcester Rd",
      "address2": null,
      "city": "Framingham",
      "state": "MA",
      "zip": "01702",
      "fullZip": "01702-5371",
      "country": "US",
      "lat": 42.29851,
      "lng": -71.40022,
      "phone": "999-999-9999"
    },
    {
      "id": 820,
      "type": "Big Box",
      "name": "MARLBOROUGH MA",
      "address": "769 Donald Lynch Blvd",
      "address2": null,
      "city": "Marlborough",
      "state": "MA",
      "zip": "01752",
      "fullZip": "01752-4727",
      "country": "US",
      "lat": 42.35141,
      "lng": -71.61902,
      "phone": "508-486-9430"
    },
    {
      "id": 1532,
      "type": "Big Box",
      "name": "BURLINGTON MA",
      "address": "84 Middlesex Tpke",
      "address2": null,
      "city": "Burlington",
      "state": "MA",
      "zip": "01803",
      "fullZip": "01803-4935",
      "country": "US",
      "lat": 42.47698,
      "lng": -71.21574,
      "phone": "781-238-8149"
    },
    {
      "id": 818,
      "type": "Big Box",
      "name": "SAUGUS MA",
      "address": "1201 Broadway",
      "address2": null,
      "city": "Saugus",
      "state": "MA",
      "zip": "01906",
      "fullZip": "01906-4274",
      "country": "US",
      "lat": 42.46081,
      "lng": -71.02633,
      "phone": "781-233-3435"
    },
    {
      "id": 533,
      "type": "Big Box",
      "name": "DANVERS MA",
      "address": "230 Independence Way",
      "address2": null,
      "city": "Danvers",
      "state": "MA",
      "zip": "01923",
      "fullZip": "01923-3692",
      "country": "US",
      "lat": 42.5527703950562,
      "lng": -70.93851187621432,
      "phone": "978-774-9494"
    },
    {
      "id": 629,
      "type": "Repair Depot",
      "name": "SVC",
      "address": "140 Depot St",
      "address2": null,
      "city": "Bellingham",
      "state": "MA",
      "zip": "02019",
      "fullZip": "02019-1438",
      "country": "US",
      "lat": 42.09599,
      "lng": -71.48437,
      "phone": "978-374-9877"
    },
    {
      "id": 726,
      "type": null,
      "name": "DDC-BOSTON",
      "address": "140 Depot St",
      "address2": null,
      "city": "Bellingham",
      "state": "MA",
      "zip": "02019",
      "fullZip": "02019-1438",
      "country": "US",
      "lat": 42.0976321,
      "lng": -71.4872634,
      "phone": "508-966-5700"
    },
    {
      "id": 9047,
      "type": null,
      "name": "VDDC 726 BOSTON",
      "address": "140 Depot St",
      "address2": null,
      "city": "Bellingham",
      "state": "MA",
      "zip": "02019",
      "fullZip": "02019-1438",
      "country": "US",
      "lat": 42.097422,
      "lng": -71.485507,
      "phone": "508-966-5700"
    },
    {
      "id": 436,
      "type": "Big Box",
      "name": "DEDHAM MA",
      "address": "700 Providence Hwy",
      "address2": null,
      "city": "Dedham",
      "state": "MA",
      "zip": "02026",
      "fullZip": "02026-6800",
      "country": "US",
      "lat": 42.24028,
      "lng": -71.17613,
      "phone": "781-461-6768"
    },
    {
      "id": 1140,
      "type": "Big Box",
      "name": "MANSFIELD MA",
      "address": "280 School St",
      "address2": "Ste 120",
      "city": "Mansfield",
      "state": "MA",
      "zip": "02048",
      "fullZip": "02048-1840",
      "country": "US",
      "lat": 42.01288,
      "lng": -71.2264,
      "phone": "508-261-2340"
    },
    {
      "id": 9717,
      "type": "Virtual Experience",
      "name": "VS DDC 726 BOS PKUP",
      "address": "31 PLYMOUTH ST",
      "address2": null,
      "city": "MANSFIELD",
      "state": "MA",
      "zip": "02048",
      "fullZip": "02048-2034",
      "country": "US",
      "lat": null,
      "lng": null,
      "phone": "999-999-9999"
    },
    {
      "id": 9735,
      "type": "Virtual Experience",
      "name": "VS DDC 726 BOS .COM",
      "address": "31 PLYMOUTH ST",
      "address2": null,
      "city": "MANSFIELD",
      "state": "MA",
      "zip": "02048",
      "fullZip": "02048-2034",
      "country": "US",
      "lat": null,
      "lng": null,
      "phone": "999-999-9999"
    },
    {
      "id": 9755,
      "type": "Virtual Experience",
      "name": "VS DDC 726 BST DLV",
      "address": "31 PLYMOUTH ST",
      "address2": null,
      "city": "MANSFIELD",
      "state": "MA",
      "zip": "02048",
      "fullZip": "02048-2034",
      "country": "US",
      "lat": null,
      "lng": null,
      "phone": "999-999-9999"
    },
    {
      "id": 9788,
      "type": "Virtual Experience",
      "name": "VS DDC 726 PAC",
      "address": "31 PLYMOUTH ST",
      "address2": null,
      "city": "MANSFIELD",
      "state": "MA",
      "zip": "02048",
      "fullZip": "02048-2034",
      "country": "US",
      "lat": null,
      "lng": null,
      "phone": "999-999-9999"
    },
    {
      "id": 1126,
      "type": "Big Box",
      "name": "SOUTH BAY MA",
      "address": "14 Allstate Rd",
      "address2": null,
      "city": "Dorchester",
      "state": "MA",
      "zip": "02125",
      "fullZip": "02125-1653",
      "country": "US",
      "lat": 42.32793,
      "lng": -71.06098,
      "phone": "617-445-5361"
    },
    {
      "id": 1088,
      "type": "Big Box",
      "name": "EVERETT MA",
      "address": "162 Santilli Hwy",
      "address2": null,
      "city": "Everett",
      "state": "MA",
      "zip": "02149",
      "fullZip": "02149-1938",
      "country": "US",
      "lat": 42.40341,
      "lng": -71.06817,
      "phone": "617-394-5080"
    },
    {
      "id": 530,
      "type": "Big Box",
      "name": "BRAINTREE MA",
      "address": "550 Grossman Dr",
      "address2": null,
      "city": "Braintree",
      "state": "MA",
      "zip": "02184",
      "fullZip": "02184-4953",
      "country": "US",
      "lat": 42.21697,
      "lng": -70.99937,
      "phone": "781-848-1100"
    },
    {
      "id": 2652,
      "type": "Outlet Center",
      "name": "BROCKTON OUTLET",
      "address": "200 Westgate Dr",
      "address2": "Westgate Mall",
      "city": "Brockton",
      "state": "MA",
      "zip": "02301",
      "fullZip": "02301-1810",
      "country": "US",
      "lat": 42.0945,
      "lng": -71.05293,
      "phone": "508-897-6720"
    },
    {
      "id": 385,
      "type": "Big Box",
      "name": "PLYMOUTH MA",
      "address": "228 Colony Place Rd",
      "address2": null,
      "city": "Plymouth",
      "state": "MA",
      "zip": "02360",
      "fullZip": "02360-7234",
      "country": "US",
      "lat": 41.95184,
      "lng": -70.71687,
      "phone": "508-732-3640"
    },
    {
      "id": 596,
      "type": "Big Box",
      "name": "WATERTOWN MA",
      "address": "550 Arsenal St",
      "address2": "Ste 2",
      "city": "Watertown",
      "state": "MA",
      "zip": "02472",
      "fullZip": "02472-2844",
      "country": "US",
      "lat": 42.3635,
      "lng": -71.15898,
      "phone": "617-926-0142"
    },
    {
      "id": 568,
      "type": "Big Box",
      "name": "CAPE COD MA",
      "address": "793 Iyannough Rd",
      "address2": "Ste A",
      "city": "Hyannis",
      "state": "MA",
      "zip": "02601",
      "fullZip": "02601-5034",
      "country": "US",
      "lat": 41.66823,
      "lng": -70.29916,
      "phone": "508-771-5170"
    },
    {
      "id": 343,
      "type": "Big Box",
      "name": "NORTH DARTMOUTH MA",
      "address": "27 Faunce Corner Rd",
      "address2": null,
      "city": "North Dartmouth",
      "state": "MA",
      "zip": "02747",
      "fullZip": "02747-4216",
      "country": "US",
      "lat": 41.64314,
      "lng": -70.98644,
      "phone": "508-984-0002"
    },
    {
      "id": 441,
      "type": "Big Box",
      "name": "ATTLEBORO MA",
      "address": "1337 S Washington St",
      "address2": "Route 1",
      "city": "North Attleboro",
      "state": "MA",
      "zip": "02760",
      "fullZip": "02760-4404",
      "country": "US",
      "lat": 41.93542,
      "lng": -71.35265,
      "phone": "508-699-5800"
    },
    {
      "id": 806,
      "type": "Big Box",
      "name": "SEEKONK MA",
      "address": "41 Commerce Way",
      "address2": null,
      "city": "Seekonk",
      "state": "MA",
      "zip": "02771",
      "fullZip": "02771-5816",
      "country": "US",
      "lat": 41.79345,
      "lng": -71.32187,
      "phone": "508-336-1391"
    },
    {
      "id": 569,
      "type": "Big Box",
      "name": "WARWICK RI",
      "address": "24 Universal Blvd",
      "address2": null,
      "city": "Warwick",
      "state": "RI",
      "zip": "02886",
      "fullZip": "02886-4238",
      "country": "US",
      "lat": 41.70134,
      "lng": -71.49602,
      "phone": "401-826-7007"
    },
    {
      "id": 6501,
      "type": "Custom",
      "name": "RHODE ISLAND CUSTOM",
      "address": "24 Universal Blvd",
      "address2": null,
      "city": "Warwick",
      "state": "RI",
      "zip": "02886",
      "fullZip": "02886-4238",
      "country": "US",
      "lat": 41.70306,
      "lng": -71.49717,
      "phone": "999-999-9999"
    },
    {
      "id": 534,
      "type": "Big Box",
      "name": "NASHUA NH",
      "address": "220 Daniel Webster Hwy",
      "address2": null,
      "city": "Nashua",
      "state": "NH",
      "zip": "03060",
      "fullZip": "03060-5504",
      "country": "US",
      "lat": 42.71329,
      "lng": -71.44138,
      "phone": "603-891-4900"
    },
    {
      "id": 419,
      "type": "Big Box",
      "name": "SALEM NH",
      "address": "290 S Broadway",
      "address2": "Unit E",
      "city": "Salem",
      "state": "NH",
      "zip": "03079",
      "fullZip": "03079-3323",
      "country": "US",
      "lat": 42.75865,
      "lng": -71.21384,
      "phone": "603-890-9002"
    },
    {
      "id": 536,
      "type": "Big Box",
      "name": "MANCHESTER NH",
      "address": "1500 S Willow St",
      "address2": null,
      "city": "Manchester",
      "state": "NH",
      "zip": "03103",
      "fullZip": "03103-3220",
      "country": "US",
      "lat": 42.95693,
      "lng": -71.43094,
      "phone": "603-622-0804"
    },
    {
      "id": 591,
      "type": "Big Box",
      "name": "CONCORD NH",
      "address": "78 Damante Dr",
      "address2": null,
      "city": "Concord",
      "state": "NH",
      "zip": "03301",
      "fullZip": "03301-5759",
      "country": "US",
      "lat": 43.21849,
      "lng": -71.48579,
      "phone": "603-227-0826"
    },
    {
      "id": 868,
      "type": "Big Box",
      "name": "WEST LEBANON NH",
      "address": "274 Plainfield Rd",
      "address2": null,
      "city": "West Lebanon",
      "state": "NH",
      "zip": "03784",
      "fullZip": "03784-2025",
      "country": "US",
      "lat": 43.62601,
      "lng": -72.32546,
      "phone": "603-298-7353"
    },
    {
      "id": 1843,
      "type": "Pooled Labor",
      "name": "NY Z4 POOLED LBR",
      "address": "45 GOSSLING RD",
      "address2": null,
      "city": "NEWINGTON",
      "state": "NH",
      "zip": "03801",
      "fullZip": "03801-2802",
      "country": "US",
      "lat": null,
      "lng": null,
      "phone": "999-999-9999"
    },
    {
      "id": 535,
      "type": "Big Box",
      "name": "PORTSMOUTH NH",
      "address": "45 Gosling Rd",
      "address2": "Ste 15",
      "city": "Newington",
      "state": "NH",
      "zip": "03801",
      "fullZip": "03801-7826",
      "country": "US",
      "lat": 43.09463,
      "lng": -70.79889,
      "phone": "603-431-1269"
    },
    {
      "id": 6568,
      "type": "Custom",
      "name": "NEW HAMPSHIRE CUSTOM",
      "address": "45 Gosling Rd",
      "address2": null,
      "city": "Newington",
      "state": "NH",
      "zip": "03801",
      "fullZip": "03801-2802",
      "country": "US",
      "lat": null,
      "lng": null,
      "phone": "999-999-9999"
    },
    {
      "id": 531,
      "type": "Big Box",
      "name": "PORTLAND ME",
      "address": "364 Maine Mall Rd",
      "address2": "Box 301",
      "city": "South Portland",
      "state": "ME",
      "zip": "04106",
      "fullZip": "04106-3206",
      "country": "US",
      "lat": 43.63429,
      "lng": -70.33656,
      "phone": "207-791-8800"
    },
    {
      "id": 1464,
      "type": "Big Box",
      "name": "AUGUSTA ME",
      "address": "14 Crossing Way",
      "address2": null,
      "city": "Augusta",
      "state": "ME",
      "zip": "04330",
      "fullZip": "04330-6107",
      "country": "US",
      "lat": 44.30895,
      "lng": -69.80696,
      "phone": "207-626-3510"
    },
    {
      "id": 463,
      "type": "Big Box",
      "name": "BANGOR ME",
      "address": "45 Bangor Mall Blvd",
      "address2": null,
      "city": "Bangor",
      "state": "ME",
      "zip": "04401",
      "fullZip": "04401-3612",
      "country": "US",
      "lat": 44.8368,
      "lng": -68.74571,
      "phone": "207-942-3434"
    },
    {
      "id": 360,
      "type": "Big Box",
      "name": "WILLISTON VT",
      "address": "26 Cypress St",
      "address2": null,
      "city": "Williston",
      "state": "VT",
      "zip": "05495",
      "fullZip": "05495-8209",
      "country": "US",
      "lat": 44.44466,
      "lng": -73.10967,
      "phone": "802-872-0992"
    },
    {
      "id": 484,
      "type": "Big Box",
      "name": "MANCHESTER CT",
      "address": "120 Slater St",
      "address2": null,
      "city": "Manchester",
      "state": "CT",
      "zip": "06042",
      "fullZip": "06042-1648",
      "country": "US",
      "lat": 41.80726,
      "lng": -72.5353,
      "phone": "860-648-5870"
    },
    {
      "id": 1468,
      "type": "Big Box",
      "name": "WEST SIMSBURY CT",
      "address": "44A Albany Tpke",
      "address2": null,
      "city": "West Simsbury",
      "state": "CT",
      "zip": "06092",
      "fullZip": "06092-2901",
      "country": "US",
      "lat": 41.81936,
      "lng": -72.86954,
      "phone": "860-651-2359"
    },
    {
      "id": 381,
      "type": "Big Box",
      "name": "WEST HARTFORD CT",
      "address": "1501 New Britain Ave",
      "address2": null,
      "city": "West Hartford",
      "state": "CT",
      "zip": "06110",
      "fullZip": "06110-1659",
      "country": "US",
      "lat": 41.72321,
      "lng": -72.75882,
      "phone": "860-521-5400"
    },
    {
      "id": 487,
      "type": "Big Box",
      "name": "NEWINGTON CT",
      "address": "3377 Berlin Tpke",
      "address2": null,
      "city": "Newington",
      "state": "CT",
      "zip": "06111",
      "fullZip": "06111-5148",
      "country": "US",
      "lat": 41.65577,
      "lng": -72.72641,
      "phone": "860-666-5100"
    },
    {
      "id": 549,
      "type": "Big Box",
      "name": "WATERFORD CT",
      "address": "913 Hartford Tpke",
      "address2": null,
      "city": "Waterford",
      "state": "CT",
      "zip": "06385",
      "fullZip": "06385-4227",
      "country": "US",
      "lat": 41.38155,
      "lng": -72.15209,
      "phone": "860-701-0300"
    },
    {
      "id": 1488,
      "type": "Big Box",
      "name": "NORTH HAVEN CT",
      "address": "398 Universal Dr N",
      "address2": null,
      "city": "North Haven",
      "state": "CT",
      "zip": "06473",
      "fullZip": "06473-3163",
      "country": "US",
      "lat": 41.35479,
      "lng": -72.8739,
      "phone": "203-985-0079"
    },
    {
      "id": 9832,
      "type": "Virtual Experience",
      "name": "VS DPAD 2319 NH DLV",
      "address": "8 NORTHRUP INDUSTRIAL PARK RD",
      "address2": null,
      "city": "WALLINGFORD",
      "state": "CT",
      "zip": "06492",
      "fullZip": "06492-1962",
      "country": "US",
      "lat": null,
      "lng": null,
      "phone": "999-999-9999"
    },
    {
      "id": 1067,
      "type": "Big Box",
      "name": "TRUMBULL CT",
      "address": "100 Hawley Ln",
      "address2": null,
      "city": "Trumbull",
      "state": "CT",
      "zip": "06611",
      "fullZip": "06611-5330",
      "country": "US",
      "lat": 41.23267,
      "lng": -73.15244,
      "phone": "203-381-0783"
    },
    {
      "id": 331,
      "type": "Big Box",
      "name": "DANBURY CT",
      "address": "2 International Dr",
      "address2": null,
      "city": "Danbury",
      "state": "CT",
      "zip": "06810",
      "fullZip": "06810-4025",
      "country": "US",
      "lat": 41.41726,
      "lng": -73.4181,
      "phone": "203-798-9699"
    },
    {
      "id": 6558,
      "type": "Custom",
      "name": "CONNECTICUT CUSTOM",
      "address": "330 Connecticut Ave",
      "address2": "Ste 4",
      "city": "Norwalk",
      "state": "CT",
      "zip": "06854",
      "fullZip": "06854-1821",
      "country": "US",
      "lat": null,
      "lng": null,
      "phone": "999-999-9999"
    },
    {
      "id": 886,
      "type": "Big Box",
      "name": "NORWALK CT",
      "address": "330 Connecticut Ave",
      "address2": "Ste 4",
      "city": "Norwalk",
      "state": "CT",
      "zip": "06854",
      "fullZip": "06854-1821",
      "country": "US",
      "lat": 41.10354,
      "lng": -73.43846,
      "phone": "203-857-4543"
    },
    {
      "id": 1217,
      "type": "Big Box",
      "name": "AMERICAN DREAM NJ",
      "address": "1 American Dream Way",
      "address2": "C351",
      "city": "East Rutherford",
      "state": "NJ",
      "zip": "07073",
      "fullZip": "07073-2501",
      "country": "US",
      "lat": 40.80944864492139,
      "lng": -74.06692705069345,
      "phone": "201-508-3768"
    },
    {
      "id": 472,
      "type": "Big Box",
      "name": "UNION NJ",
      "address": "2391 US Highway 22 W",
      "address2": null,
      "city": "Union",
      "state": "NJ",
      "zip": "07083",
      "fullZip": "07083-8517",
      "country": "US",
      "lat": 40.69128,
      "lng": -74.2962,
      "phone": "908-810-2150"
    },
    {
      "id": 474,
      "type": "Big Box",
      "name": "SECAUCUS NJ",
      "address": "3 Mill Creek Dr",
      "address2": null,
      "city": "Secaucus",
      "state": "NJ",
      "zip": "07094",
      "fullZip": "07094-3615",
      "country": "US",
      "lat": 40.7930438,
      "lng": -74.0514931,
      "phone": "201-325-2277"
    },
    {
      "id": 1535,
      "type": "Big Box",
      "name": "JERSEY CITY NJ",
      "address": "125 18th St",
      "address2": null,
      "city": "Jersey City",
      "state": "NJ",
      "zip": "07310",
      "fullZip": "07310-1242",
      "country": "US",
      "lat": 40.73188,
      "lng": -74.03814,
      "phone": "201-792-8399"
    },
    {
      "id": 468,
      "type": "Big Box",
      "name": "WEST PATERSON NJ",
      "address": "30 Andrews Dr",
      "address2": null,
      "city": "Woodland Park",
      "state": "NJ",
      "zip": "07424",
      "fullZip": "07424-2640",
      "country": "US",
      "lat": 40.88746,
      "lng": -74.21298,
      "phone": "973-812-9430"
    },
    {
      "id": 2509,
      "type": "Big Box",
      "name": "RIVERDALE NJ",
      "address": "48 State Rt 23",
      "address2": null,
      "city": "Riverdale",
      "state": "NJ",
      "zip": "07457",
      "fullZip": "07457-1602",
      "country": "US",
      "lat": 40.99215,
      "lng": -74.31216,
      "phone": "973-283-3399"
    },
    {
      "id": 344,
      "type": "Big Box",
      "name": "PARAMUS NJ",
      "address": "Route 17 N",
      "address2": "Fashion Center Mall",
      "city": "Paramus",
      "state": "NJ",
      "zip": "07652",
      "fullZip": "07652-4216",
      "country": "US",
      "lat": 40.96613,
      "lng": -74.07558,
      "phone": "201-652-5794"
    },
    {
      "id": 6563,
      "type": "Custom",
      "name": "NEW JERSEY CUSTOM",
      "address": "0 RT 17 N",
      "address2": null,
      "city": "Paramus",
      "state": "NJ",
      "zip": "07652",
      "fullZip": "07652-2913",
      "country": "US",
      "lat": null,
      "lng": null,
      "phone": "999-999-9999"
    },
    {
      "id": 887,
      "type": "Big Box",
      "name": "BERGEN TWN CENTER NJ",
      "address": "2400 Bergen Town Ctr",
      "address2": null,
      "city": "Paramus",
      "state": "NJ",
      "zip": "07652",
      "fullZip": "07652-5031",
      "country": "US",
      "lat": 40.9130165,
      "lng": -74.0562003,
      "phone": "201-556-1321"
    },
    {
      "id": 1895,
      "type": "Big Box",
      "name": "EATONTOWN NJ",
      "address": "50 State Route 36",
      "address2": null,
      "city": "Eatontown",
      "state": "NJ",
      "zip": "07724",
      "fullZip": "07724-2508",
      "country": "US",
      "lat": 40.2896,
      "lng": -74.04857,
      "phone": "732-389-7939"
    },
    {
      "id": 388,
      "type": "Big Box",
      "name": "MANALAPAN NJ",
      "address": "15 US Highway 9",
      "address2": null,
      "city": "Manalapan",
      "state": "NJ",
      "zip": "07726",
      "fullZip": "07726-3007",
      "country": "US",
      "lat": 40.28863,
      "lng": -74.29731,
      "phone": "732-761-8445"
    },
    {
      "id": 400,
      "type": "Big Box",
      "name": "HOLMDEL NJ",
      "address": "2130 State Route 35",
      "address2": "At Laurel Ave",
      "city": "Holmdel",
      "state": "NJ",
      "zip": "07733",
      "fullZip": "07733-3116",
      "country": "US",
      "lat": 40.41039,
      "lng": -74.14365,
      "phone": "732-671-7123"
    },
    {
      "id": 457,
      "type": "Big Box",
      "name": "ROCKAWAY NJ",
      "address": "345 Mount Hope Ave",
      "address2": "Ste 1001",
      "city": "Rockaway",
      "state": "NJ",
      "zip": "07866",
      "fullZip": "07866-2143",
      "country": "US",
      "lat": 40.90354,
      "lng": -74.55018,
      "phone": "973-659-0911"
    },
    {
      "id": 473,
      "type": "Big Box",
      "name": "EAST HANOVER NJ",
      "address": "410 State Route 10",
      "address2": null,
      "city": "East Hanover",
      "state": "NJ",
      "zip": "07936",
      "fullZip": "07936-3597",
      "country": "US",
      "lat": 40.80272,
      "lng": -74.36048,
      "phone": "973-515-4994"
    },
    {
      "id": 1098,
      "type": "Big Box",
      "name": "CHERRY HILL NJ",
      "address": "2130 Route 70 W",
      "address2": null,
      "city": "Cherry Hill",
      "state": "NJ",
      "zip": "08002",
      "fullZip": "08002-2779",
      "country": "US",
      "lat": 39.92327,
      "lng": -75.03603,
      "phone": "856-910-7932"
    },
    {
      "id": 1177,
      "type": "Big Box",
      "name": "MANAHAWKIN NJ",
      "address": "215 Stafford Park Blvd",
      "address2": null,
      "city": "Manahawkin",
      "state": "NJ",
      "zip": "08050",
      "fullZip": "08050-2734",
      "country": "US",
      "lat": 39.70953,
      "lng": -74.28473,
      "phone": "609-978-9425"
    },
    {
      "id": 2651,
      "type": "Outlet Center",
      "name": "MARLTON OUTLET",
      "address": "515 Route 73 S",
      "address2": null,
      "city": "Marlton",
      "state": "NJ",
      "zip": "08053",
      "fullZip": "08053-9661",
      "country": "US",
      "lat": 39.87878,
      "lng": -74.92361,
      "phone": "856-355-0220"
    },
    {
      "id": 583,
      "type": "Big Box",
      "name": "MOUNT LAUREL NJ",
      "address": "1420 Nixon Dr",
      "address2": "Eastgate Square",
      "city": "Mount Laurel",
      "state": "NJ",
      "zip": "08054",
      "fullZip": "08054-4261",
      "country": "US",
      "lat": 39.94044,
      "lng": -74.95822,
      "phone": "856-608-1600"
    },
    {
      "id": 579,
      "type": "Big Box",
      "name": "DEPTFORD NJ",
      "address": "1851 Deptford Center Rd",
      "address2": null,
      "city": "Deptford",
      "state": "NJ",
      "zip": "08096",
      "fullZip": "08096-5625",
      "country": "US",
      "lat": 39.82794,
      "lng": -75.09283,
      "phone": "856-374-0404"
    },
    {
      "id": 581,
      "type": "Big Box",
      "name": "MAYS LANDING NJ",
      "address": "100 Consumer Sq",
      "address2": "Hamilton Mall",
      "city": "Mays Landing",
      "state": "NJ",
      "zip": "08330",
      "fullZip": "08330-3324",
      "country": "US",
      "lat": 39.45413,
      "lng": -74.63011,
      "phone": "609-485-0500"
    },
    {
      "id": 692,
      "type": "Big Box",
      "name": "VINELAND NJ",
      "address": "3849 S Delsea Dr",
      "address2": null,
      "city": "Vineland",
      "state": "NJ",
      "zip": "08360",
      "fullZip": "08360-7408",
      "country": "US",
      "lat": 39.43007,
      "lng": -75.03932,
      "phone": "856-765-1880"
    },
    {
      "id": 578,
      "type": "Big Box",
      "name": "PRINCETON NJ",
      "address": "251 Nassau Park Blvd",
      "address2": "Nassau Park Shopping Ctr",
      "city": "Princeton",
      "state": "NJ",
      "zip": "08540",
      "fullZip": "08540-5935",
      "country": "US",
      "lat": 40.30301,
      "lng": -74.67942,
      "phone": "609-514-9500"
    },
    {
      "id": 475,
      "type": "Big Box",
      "name": "BRICK NJ",
      "address": "51 Chambersbridge Rd",
      "address2": null,
      "city": "Brick",
      "state": "NJ",
      "zip": "08723",
      "fullZip": "08723-4168",
      "country": "US",
      "lat": 40.06095,
      "lng": -74.13855,
      "phone": "732-477-4443"
    },
    {
      "id": 544,
      "type": "Big Box",
      "name": "BRIDGEWATER NJ",
      "address": "300 Commons Way",
      "address2": "RM 544",
      "city": "Bridgewater",
      "state": "NJ",
      "zip": "08807",
      "fullZip": "08807-2803",
      "country": "US",
      "lat": 40.59102782110091,
      "lng": -74.62108092602378,
      "phone": "908-429-9339"
    },
    {
      "id": 598,
      "type": "Big Box",
      "name": "EAST BRUNSWICK NJ",
      "address": "300 State Route 18",
      "address2": "Suite 4",
      "city": "East Brunswick",
      "state": "NJ",
      "zip": "08816",
      "fullZip": "08816-1911",
      "country": "US",
      "lat": 40.45593,
      "lng": -74.39452,
      "phone": "732-257-5293"
    },
    {
      "id": 9710,
      "type": "Virtual Experience",
      "name": "VS DDC 715 NY PKUP",
      "address": "75 CARTER DR",
      "address2": null,
      "city": "EDISON",
      "state": "NJ",
      "zip": "08817",
      "fullZip": "08817-2067",
      "country": "US",
      "lat": null,
      "lng": null,
      "phone": "999-999-9999"
    },
    {
      "id": 9730,
      "type": "Virtual Experience",
      "name": "VS DDC 715 NY .COM",
      "address": "75 CARTER DR",
      "address2": null,
      "city": "EDISON",
      "state": "NJ",
      "zip": "08817",
      "fullZip": "08817-2067",
      "country": "US",
      "lat": null,
      "lng": null,
      "phone": "999-999-9999"
    },
    {
      "id": 9748,
      "type": "Virtual Experience",
      "name": "VS DDC 715 NY DLV",
      "address": "75 CARTER DR",
      "address2": null,
      "city": "EDISON",
      "state": "NJ",
      "zip": "08817",
      "fullZip": "08817-2067",
      "country": "US",
      "lat": null,
      "lng": null,
      "phone": "999-999-9999"
    },
    {
      "id": 9783,
      "type": "Virtual Experience",
      "name": "VS DDC 715 PAC",
      "address": "75 CARTER DR",
      "address2": null,
      "city": "EDISON",
      "state": "NJ",
      "zip": "08817",
      "fullZip": "08817-2067",
      "country": "US",
      "lat": null,
      "lng": null,
      "phone": "999-999-9999"
    },
    {
      "id": 456,
      "type": "Big Box",
      "name": "WOODBRIDGE NJ",
      "address": "675 US Highway 1 S",
      "address2": null,
      "city": "Iselin",
      "state": "NJ",
      "zip": "08830",
      "fullZip": "08830-3152",
      "country": "US",
      "lat": 40.55978,
      "lng": -74.30771,
      "phone": "732-596-1220"
    },
    {
      "id": 2281,
      "type": "Geek Squad Call Center",
      "name": "GSCC PERTH",
      "address": "300 Ridge Rd",
      "address2": null,
      "city": "Piscataway",
      "state": "NJ",
      "zip": "08854",
      "fullZip": "08854-3977",
      "country": "US",
      "lat": null,
      "lng": null,
      "phone": "999-999-9999"
    },
    {
      "id": 615,
      "type": "Repair Depot",
      "name": "NEW YORK SERVICE",
      "address": "300 Ridge Rd",
      "address2": "DOCK DOOR #909",
      "city": "Piscataway",
      "state": "NJ",
      "zip": "08854",
      "fullZip": "08854-3977",
      "country": "US",
      "lat": 40.55767,
      "lng": -74.512771,
      "phone": "732-376-4500"
    },
    {
      "id": 715,
      "type": null,
      "name": "DDC-NEW YORK",
      "address": "300 Ridge Rd",
      "address2": null,
      "city": "Piscataway",
      "state": "NJ",
      "zip": "08854",
      "fullZip": "08854-3977",
      "country": "US",
      "lat": 40.5583831,
      "lng": -74.5127349,
      "phone": "732-376-4600"
    },
    {
      "id": 9040,
      "type": null,
      "name": "VDDC 715 NEW YORK",
      "address": "300 Ridge Rd",
      "address2": null,
      "city": "Piscataway",
      "state": "NJ",
      "zip": "08854",
      "fullZip": "08854-3977",
      "country": "US",
      "lat": 40.5576,
      "lng": -74.51321,
      "phone": "732-376-4600"
    },
    {
      "id": 9835,
      "type": "Virtual Experience",
      "name": "VS MEC 914 PSC .com",
      "address": "300 RIDGE RD",
      "address2": null,
      "city": "PISCATAWAY",
      "state": "NJ",
      "zip": "08854",
      "fullZip": "08854-3977",
      "country": "US",
      "lat": null,
      "lng": null,
      "phone": "999-999-9999"
    },
    {
      "id": 1531,
      "type": "Big Box",
      "name": "UNION SQUARE NY",
      "address": "52 E 14th St",
      "address2": "Number 64",
      "city": "New York",
      "state": "NY",
      "zip": "10003",
      "fullZip": "10003-4140",
      "country": "US",
      "lat": 40.73419,
      "lng": -73.99015,
      "phone": "212-466-4789"
    },
    {
      "id": 482,
      "type": "Big Box",
      "name": "23RD AND 6TH  NY",
      "address": "60 W 23rd St",
      "address2": null,
      "city": "New York",
      "state": "NY",
      "zip": "10010",
      "fullZip": "10010-5283",
      "country": "US",
      "lat": 40.74264,
      "lng": -73.9927,
      "phone": "212-366-1373"
    },
    {
      "id": 1028,
      "type": "Big Box",
      "name": "44TH AND 5TH  NY",
      "address": "531 5th Ave",
      "address2": null,
      "city": "New York",
      "state": "NY",
      "zip": "10017",
      "fullZip": "10017-3604",
      "country": "US",
      "lat": 40.75484,
      "lng": -73.97942,
      "phone": "212-808-0309"
    },
    {
      "id": 6559,
      "type": "Custom",
      "name": "MANHATTAN CUSTOM",
      "address": "1880 Broadway",
      "address2": null,
      "city": "New York",
      "state": "NY",
      "zip": "10023",
      "fullZip": "10023-7500",
      "country": "US",
      "lat": null,
      "lng": null,
      "phone": "999-999-9999"
    },
    {
      "id": 835,
      "type": "Big Box",
      "name": "86TH AND LEXINGTN NY",
      "address": "1280 Lexington Ave",
      "address2": null,
      "city": "New York",
      "state": "NY",
      "zip": "10028",
      "fullZip": "10028-2105",
      "country": "US",
      "lat": 40.77974,
      "lng": -73.95566,
      "phone": "917-492-8870"
    },
    {
      "id": 469,
      "type": "Big Box",
      "name": "STATEN ISLAND NY",
      "address": "2795 Richmond Ave",
      "address2": "Ste 39",
      "city": "Staten Island",
      "state": "NY",
      "zip": "10314",
      "fullZip": "10314-5866",
      "country": "US",
      "lat": 40.57675,
      "lng": -74.16736,
      "phone": "718-698-7546"
    },
    {
      "id": 1172,
      "type": "Big Box",
      "name": "BRONX TERMINAL NY",
      "address": "610 Exterior St",
      "address2": null,
      "city": "Bronx",
      "state": "NY",
      "zip": "10451",
      "fullZip": "10451-2044",
      "country": "US",
      "lat": 40.820166006065776,
      "lng": -73.9301954512642,
      "phone": "718-402-2932"
    },
    {
      "id": 1261,
      "type": "Big Box",
      "name": "BRONX RIVERDALE",
      "address": "171 W 230th St",
      "address2": "Ste 103",
      "city": "Bronx",
      "state": "NY",
      "zip": "10463",
      "fullZip": "10463-5252",
      "country": "US",
      "lat": 40.87741,
      "lng": -73.90492,
      "phone": "718-530-7720"
    },
    {
      "id": 1844,
      "type": "Pooled Labor",
      "name": "USO DANBURY",
      "address": "299 N CENTRAL AVE",
      "address2": null,
      "city": "HARTSDALE",
      "state": "NY",
      "zip": "10530",
      "fullZip": "10530-1803",
      "country": "US",
      "lat": null,
      "lng": null,
      "phone": "999-999-9999"
    },
    {
      "id": 1029,
      "type": "Big Box",
      "name": "CORTLANDT NY",
      "address": "3105 E Main St",
      "address2": null,
      "city": "Mohegan Lake",
      "state": "NY",
      "zip": "10547",
      "fullZip": "10547-1521",
      "country": "US",
      "lat": 41.31083,
      "lng": -73.87128,
      "phone": "914-528-3807"
    },
    {
      "id": 471,
      "type": "Big Box",
      "name": "MOUNT VERNON NY",
      "address": "555 E Sandford Blvd",
      "address2": null,
      "city": "Mount Vernon",
      "state": "NY",
      "zip": "10550",
      "fullZip": "10550-4736",
      "country": "US",
      "lat": 40.90204,
      "lng": -73.81959,
      "phone": "914-664-4425"
    },
    {
      "id": 374,
      "type": "Big Box",
      "name": "YONKERS NY",
      "address": "2478 Central Park Ave",
      "address2": null,
      "city": "Yonkers",
      "state": "NY",
      "zip": "10710",
      "fullZip": "10710-1125",
      "country": "US",
      "lat": 40.9814,
      "lng": -73.8277,
      "phone": "914-337-4077"
    },
    {
      "id": 461,
      "type": "Big Box",
      "name": "MIDDLETOWN NY",
      "address": "1100 N Galleria Dr",
      "address2": null,
      "city": "Middletown",
      "state": "NY",
      "zip": "10941",
      "fullZip": "10941-3041",
      "country": "US",
      "lat": 41.45545,
      "lng": -74.37262,
      "phone": "845-692-7553"
    },
    {
      "id": 455,
      "type": "Big Box",
      "name": "WEST NYACK NY",
      "address": "1240 Palisades Center Dr",
      "address2": null,
      "city": "West Nyack",
      "state": "NY",
      "zip": "10994",
      "fullZip": "10994-6202",
      "country": "US",
      "lat": 41.09808,
      "lng": -73.9578,
      "phone": "845-358-4070"
    },
    {
      "id": 478,
      "type": "Big Box",
      "name": "LONG ISLAND CITY NY",
      "address": "5001 Northern Blvd",
      "address2": null,
      "city": "Long Island City",
      "state": "NY",
      "zip": "11101",
      "fullZip": "11101-1033",
      "country": "US",
      "lat": 40.7536,
      "lng": -73.91196,
      "phone": "718-626-7585"
    },
    {
      "id": 599,
      "type": "Big Box",
      "name": "BAY PKWY BROOKLYN NY",
      "address": "8923 Bay Pkwy",
      "address2": null,
      "city": "Brooklyn",
      "state": "NY",
      "zip": "11214",
      "fullZip": "11214-6437",
      "country": "US",
      "lat": 40.59367,
      "lng": -73.99899,
      "phone": "718-265-6950"
    },
    {
      "id": 2518,
      "type": "Big Box",
      "name": "ATLANTIC CENTER NY",
      "address": "625 Atlantic Ave",
      "address2": "Ste A7",
      "city": "Brooklyn",
      "state": "NY",
      "zip": "11217",
      "fullZip": "11217-5208",
      "country": "US",
      "lat": 40.68361068872152,
      "lng": -73.97469373350376,
      "phone": "718-230-7480"
    },
    {
      "id": 1886,
      "type": "Big Box",
      "name": "GATEWAY BROOKLYN NY",
      "address": "369 Gateway Dr",
      "address2": null,
      "city": "Brooklyn",
      "state": "NY",
      "zip": "11239",
      "fullZip": "11239-2805",
      "country": "US",
      "lat": 40.65156,
      "lng": -73.87267,
      "phone": "718-348-2739"
    },
    {
      "id": 483,
      "type": "Big Box",
      "name": "REGO PARK NY",
      "address": "61-35 Junction Blvd",
      "address2": null,
      "city": "Rego Park",
      "state": "NY",
      "zip": "11374",
      "fullZip": "11374-2771",
      "country": "US",
      "lat": 40.73315,
      "lng": -73.86391,
      "phone": "718-393-2690"
    },
    {
      "id": 1467,
      "type": "Big Box",
      "name": "BALDWIN NY",
      "address": "660 Sunrise Hwy",
      "address2": null,
      "city": "Baldwin",
      "state": "NY",
      "zip": "11510",
      "fullZip": "11510-3136",
      "country": "US",
      "lat": 40.65588,
      "lng": -73.61252,
      "phone": "516-379-0760"
    },
    {
      "id": 2687,
      "type": "Yardbird Showroom",
      "name": "YB Garden City NY",
      "address": "120-140 Glen Cove Rd",
      "address2": null,
      "city": "Carle Place",
      "state": "NY",
      "zip": "11514",
      "fullZip": "11514-1902",
      "country": "US",
      "lat": null,
      "lng": null,
      "phone": "999-999-9999"
    },
    {
      "id": 950,
      "type": "Big Box",
      "name": "VALLEY STREAM NY",
      "address": "6 West Cir",
      "address2": null,
      "city": "Valley Stream",
      "state": "NY",
      "zip": "11581",
      "fullZip": "11581-1517",
      "country": "US",
      "lat": 40.664,
      "lng": -73.72411,
      "phone": "516-561-7213"
    },
    {
      "id": 1840,
      "type": "Pooled Labor",
      "name": "USO NEW YORK CITY",
      "address": "1050 OLD COUNTRY RD",
      "address2": null,
      "city": "WESTBURY",
      "state": "NY",
      "zip": "11590",
      "fullZip": "11590-5625",
      "country": "US",
      "lat": 40.754705,
      "lng": -73.559306,
      "phone": "999-999-9999"
    },
    {
      "id": 454,
      "type": "Big Box",
      "name": "WESTBURY NY",
      "address": "1100 Old Country Rd",
      "address2": null,
      "city": "Westbury",
      "state": "NY",
      "zip": "11590",
      "fullZip": "11590-5625",
      "country": "US",
      "lat": 40.74432,
      "lng": -73.60206,
      "phone": "516-357-9025"
    },
    {
      "id": 6562,
      "type": "Custom",
      "name": "LONG ISLAND CUSTOM",
      "address": "1100 Old Country Rd",
      "address2": null,
      "city": "Westbury",
      "state": "NY",
      "zip": "11590",
      "fullZip": "11590-5625",
      "country": "US",
      "lat": null,
      "lng": null,
      "phone": "999-999-9999"
    },
    {
      "id": 442,
      "type": "Big Box",
      "name": "BAY SHORE NY",
      "address": "1851 Sunrise Hwy",
      "address2": null,
      "city": "Bay Shore",
      "state": "NY",
      "zip": "11706",
      "fullZip": "11706-6024",
      "country": "US",
      "lat": 40.74104,
      "lng": -73.23717,
      "phone": "631-969-8740"
    },
    {
      "id": 345,
      "type": "Big Box",
      "name": "HUNTINGTN STATION NY",
      "address": "148 Walt Whitman Rd",
      "address2": null,
      "city": "Huntington Station",
      "state": "NY",
      "zip": "11746",
      "fullZip": "11746-4128",
      "country": "US",
      "lat": 40.82548,
      "lng": -73.41137,
      "phone": "631-427-5161"
    },
    {
      "id": 9833,
      "type": "Virtual Experience",
      "name": "VS DPAD 2360 LI DLV",
      "address": "40 ENTER LN",
      "address2": null,
      "city": "ISLANDIA",
      "state": "NY",
      "zip": "11749",
      "fullZip": "11749-4811",
      "country": "US",
      "lat": null,
      "lng": null,
      "phone": "999-999-9999"
    },
    {
      "id": 467,
      "type": "Big Box",
      "name": "LEVITTOWN NY",
      "address": "3601 Hempstead Tpke",
      "address2": "Ste 20 Nassau Mall",
      "city": "Levittown",
      "state": "NY",
      "zip": "11756",
      "fullZip": "11756-1315",
      "country": "US",
      "lat": 40.72741,
      "lng": -73.50096,
      "phone": "516-796-8095"
    },
    {
      "id": 824,
      "type": "Big Box",
      "name": "PATCHOGUE NY",
      "address": "499 N Service Rd",
      "address2": "Ste 39",
      "city": "Patchogue",
      "state": "NY",
      "zip": "11772",
      "fullZip": "11772-2287",
      "country": "US",
      "lat": 40.7775,
      "lng": -73.03648,
      "phone": "631-475-6269"
    },
    {
      "id": 458,
      "type": "Big Box",
      "name": "STONY BROOK NY",
      "address": "2110 Nesconset Highway",
      "address2": null,
      "city": "Stony Brook",
      "state": "NY",
      "zip": "11790",
      "fullZip": "11790-3503",
      "country": "US",
      "lat": 40.88422,
      "lng": -73.09929,
      "phone": "631-737-1632"
    },
    {
      "id": 809,
      "type": "Big Box",
      "name": "RIVERHEAD NY",
      "address": "1440 Old Country Rd",
      "address2": "Ste 100",
      "city": "Riverhead",
      "state": "NY",
      "zip": "11901",
      "fullZip": "11901-2081",
      "country": "US",
      "lat": 40.92756,
      "lng": -72.69209,
      "phone": "631-369-4150"
    },
    {
      "id": 2614,
      "type": "Auto Tech Bay",
      "name": "WATERVLIET AUTO BAY",
      "address": "861 1st St",
      "address2": null,
      "city": "Watervliet",
      "state": "NY",
      "zip": "12189",
      "fullZip": "12189-3536",
      "country": "US",
      "lat": 42.71135,
      "lng": -73.71792,
      "phone": "518-244-4411"
    },
    {
      "id": 9854,
      "type": "Virtual Experience",
      "name": "VS DPAD 2367 ALB DLV",
      "address": "861 1st St",
      "address2": null,
      "city": "Watervliet",
      "state": "NY",
      "zip": "12189",
      "fullZip": "12189-3536",
      "country": "US",
      "lat": null,
      "lng": null,
      "phone": "999-999-9999"
    },
    {
      "id": 428,
      "type": "Big Box",
      "name": "ALBANY NY",
      "address": "1 Crossgates Mall Rd",
      "address2": null,
      "city": "Albany",
      "state": "NY",
      "zip": "12203",
      "fullZip": "12203-5368",
      "country": "US",
      "lat": 42.68998,
      "lng": -73.85028,
      "phone": "518-452-6881"
    },
    {
      "id": 6561,
      "type": "Custom",
      "name": "ALBANY CUSTOM",
      "address": "1 Crossgates Mall Rd",
      "address2": null,
      "city": "Albany",
      "state": "NY",
      "zip": "12203",
      "fullZip": "12203-5368",
      "country": "US",
      "lat": null,
      "lng": null,
      "phone": "999-999-9999"
    },
    {
      "id": 460,
      "type": "Big Box",
      "name": "POUGHKEEPSIE NY",
      "address": "2001 South Rd",
      "address2": null,
      "city": "Poughkeepsie",
      "state": "NY",
      "zip": "12601",
      "fullZip": "12601-5978",
      "country": "US",
      "lat": 41.62445,
      "lng": -73.92017,
      "phone": "845-298-8077"
    },
    {
      "id": 541,
      "type": "Big Box",
      "name": "SARATOGA SPRINGS NY",
      "address": "3062 Route 50",
      "address2": null,
      "city": "Saratoga Springs",
      "state": "NY",
      "zip": "12866",
      "fullZip": "12866-2906",
      "country": "US",
      "lat": 43.10595,
      "lng": -73.74177,
      "phone": "518-583-1785"
    },
    {
      "id": 1127,
      "type": "Big Box",
      "name": "DEWITT NY",
      "address": "3401 Erie Blvd E",
      "address2": null,
      "city": "Dewitt",
      "state": "NY",
      "zip": "13214",
      "fullZip": "13214-1635",
      "country": "US",
      "lat": 43.04749,
      "lng": -76.06743,
      "phone": "315-449-1784"
    },
    {
      "id": 6524,
      "type": "Custom",
      "name": "SYRACUSE CUSTOM",
      "address": "3401 Erie Blvd E",
      "address2": null,
      "city": "Dewitt",
      "state": "NY",
      "zip": "13214",
      "fullZip": "13214-1635",
      "country": "US",
      "lat": null,
      "lng": null,
      "phone": "999-999-9999"
    },
    {
      "id": 1870,
      "type": "Pooled Labor",
      "name": "SYRACUSE POOLED LBR",
      "address": "9000 DESTINY USA DR",
      "address2": null,
      "city": "SYRACUSE",
      "state": "NY",
      "zip": "13290",
      "fullZip": "13290-4226",
      "country": "US",
      "lat": null,
      "lng": null,
      "phone": "315-458-2539"
    },
    {
      "id": 545,
      "type": "Big Box",
      "name": "NEW HARTFORD NY",
      "address": "4725 Commercial Dr",
      "address2": null,
      "city": "New Hartford",
      "state": "NY",
      "zip": "13413",
      "fullZip": "13413-6211",
      "country": "US",
      "lat": 43.09282,
      "lng": -75.30879,
      "phone": "315-736-8710"
    },
    {
      "id": 1089,
      "type": "Big Box",
      "name": "WATERTOWN NY",
      "address": "21085 Salmon Run Mall Loop W",
      "address2": null,
      "city": "Watertown",
      "state": "NY",
      "zip": "13601",
      "fullZip": "13601-1938",
      "country": "US",
      "lat": 43.9789,
      "lng": -75.9515,
      "phone": "315-782-0867"
    },
    {
      "id": 9722,
      "type": "Virtual Experience",
      "name": "VS RDC 781 NIC PKUP",
      "address": "55 BERRY RD",
      "address2": null,
      "city": "NICHOLS",
      "state": "NY",
      "zip": "13812",
      "fullZip": "13812-3400",
      "country": "US",
      "lat": null,
      "lng": null,
      "phone": "999-999-9999"
    },
    {
      "id": 9760,
      "type": "Virtual Experience",
      "name": "VS RDC 781 NIC DLV",
      "address": "55 BERRY RD",
      "address2": null,
      "city": "NICHOLS",
      "state": "NY",
      "zip": "13812",
      "fullZip": "13812-3400",
      "country": "US",
      "lat": null,
      "lng": null,
      "phone": "999-999-9999"
    },
    {
      "id": 9775,
      "type": "Virtual Experience",
      "name": "VS RDC 781 NIC .COM",
      "address": "55 BERRY RD",
      "address2": null,
      "city": "NICHOLS",
      "state": "NY",
      "zip": "13812",
      "fullZip": "13812-3400",
      "country": "US",
      "lat": null,
      "lng": null,
      "phone": "999-999-9999"
    },
    {
      "id": 9798,
      "type": "Virtual Experience",
      "name": "VS RDC 781 PAC",
      "address": "55 BERRY RD",
      "address2": null,
      "city": "NICHOLS",
      "state": "NY",
      "zip": "13812",
      "fullZip": "13812-3400",
      "country": "US",
      "lat": null,
      "lng": null,
      "phone": "999-999-9999"
    },
    {
      "id": 1380,
      "type": "Big Box",
      "name": "VESTAL NY",
      "address": "3209 Vestal Pkwy E",
      "address2": null,
      "city": "Vestal",
      "state": "NY",
      "zip": "13850",
      "fullZip": "13850-2143",
      "country": "US",
      "lat": 42.09699,
      "lng": -75.99727,
      "phone": "607-777-1489"
    },
    {
      "id": 1131,
      "type": "Big Box",
      "name": "HAMBURG NY",
      "address": "3701 McKinley Pkwy",
      "address2": "Ste 114",
      "city": "Buffalo",
      "state": "NY",
      "zip": "14219",
      "fullZip": "14219-2695",
      "country": "US",
      "lat": 42.78535,
      "lng": -78.80852,
      "phone": "716-824-2670"
    },
    {
      "id": 1152,
      "type": "Big Box",
      "name": "WALDEN GALLERIA NY",
      "address": "1 Galleria Dr",
      "address2": "J107",
      "city": "Cheektowaga",
      "state": "NY",
      "zip": "14225",
      "fullZip": "14225-5134",
      "country": "US",
      "lat": 42.91436,
      "lng": -78.7611,
      "phone": "716-681-5406"
    },
    {
      "id": 459,
      "type": "Big Box",
      "name": "AMHERST NY",
      "address": "1585 Niagara Falls Blvd",
      "address2": null,
      "city": "Amherst",
      "state": "NY",
      "zip": "14228",
      "fullZip": "14228-2704",
      "country": "US",
      "lat": 42.99809,
      "lng": -78.81563,
      "phone": "716-837-9080"
    },
    {
      "id": 6522,
      "type": "Custom",
      "name": "BUFFALO CUSTOM",
      "address": "1585 Niagra Falls Blvd",
      "address2": null,
      "city": "Amherst",
      "state": "NY",
      "zip": "14228",
      "fullZip": "14228-2704",
      "country": "US",
      "lat": null,
      "lng": null,
      "phone": "999-999-9999"
    },
    {
      "id": 9861,
      "type": "Virtual Experience",
      "name": "VS DPAD 1262 BUF DLV",
      "address": "60 Northpointe Pkwy",
      "address2": null,
      "city": "Amherst",
      "state": "NY",
      "zip": "14228",
      "fullZip": "14228-1883",
      "country": "US",
      "lat": null,
      "lng": null,
      "phone": "999-999-9999"
    },
    {
      "id": 1541,
      "type": "Big Box",
      "name": "VICTOR NY",
      "address": "7550 Commons Blvd",
      "address2": null,
      "city": "Victor",
      "state": "NY",
      "zip": "14564",
      "fullZip": "14564-1010",
      "country": "US",
      "lat": 43.03386,
      "lng": -77.44925,
      "phone": "585-421-4099"
    },
    {
      "id": 433,
      "type": "Big Box",
      "name": "HENRIETTA NY",
      "address": "2345 Marketplace Dr",
      "address2": null,
      "city": "Rochester",
      "state": "NY",
      "zip": "14623",
      "fullZip": "14623-6009",
      "country": "US",
      "lat": 43.07927,
      "lng": -77.63284,
      "phone": "585-292-0250"
    },
    {
      "id": 1400,
      "type": "Big Box",
      "name": "GREECE NY",
      "address": "2833 W Ridge Rd",
      "address2": "Ste 18",
      "city": "Rochester",
      "state": "NY",
      "zip": "14626",
      "fullZip": "14626-1632",
      "country": "US",
      "lat": 43.20895,
      "lng": -77.70661,
      "phone": "585-225-4690"
    },
    {
      "id": 384,
      "type": "Big Box",
      "name": "ITHACA NY",
      "address": "40 Catherwood Rd",
      "address2": null,
      "city": "Ithaca",
      "state": "NY",
      "zip": "14850",
      "fullZip": "14850-1056",
      "country": "US",
      "lat": 42.48215,
      "lng": -76.49118,
      "phone": "607-257-6824"
    },
    {
      "id": 1036,
      "type": "Big Box",
      "name": "BIG FLATS NY",
      "address": "950 County Road 64",
      "address2": "Ste 300",
      "city": "Elmira",
      "state": "NY",
      "zip": "14903",
      "fullZip": "14903-9708",
      "country": "US",
      "lat": 42.15318,
      "lng": -76.87142,
      "phone": "607-739-9471"
    },
    {
      "id": 9808,
      "type": "Virtual Experience",
      "name": "VS DPAD 743 PITT DLV",
      "address": "860 BRICKWORKS DR",
      "address2": null,
      "city": "LEETSDALE",
      "state": "PA",
      "zip": "15056",
      "fullZip": "15056-1030",
      "country": "US",
      "lat": null,
      "lng": null,
      "phone": "999-999-9999"
    },
    {
      "id": 586,
      "type": "Big Box",
      "name": "SOUTH HILLS PA",
      "address": "5000 Alicia Dr",
      "address2": null,
      "city": "Bethel Park",
      "state": "PA",
      "zip": "15102",
      "fullZip": "15102-1848",
      "country": "US",
      "lat": 40.34646,
      "lng": -80.04468,
      "phone": "412-835-1255"
    },
    {
      "id": 432,
      "type": "Big Box",
      "name": "MONROEVILLE PA",
      "address": "200 Mall Circle Dr",
      "address2": null,
      "city": "Monroeville",
      "state": "PA",
      "zip": "15146",
      "fullZip": "15146-2204",
      "country": "US",
      "lat": 40.4312,
      "lng": -79.7999,
      "phone": "412-856-7344"
    },
    {
      "id": 588,
      "type": "Big Box",
      "name": "CENTURY III PA",
      "address": "473 Clairton Blvd",
      "address2": null,
      "city": "Pittsburgh",
      "state": "PA",
      "zip": "15236",
      "fullZip": "15236-3827",
      "country": "US",
      "lat": 40.33486,
      "lng": -79.94469,
      "phone": "412-650-6240"
    },
    {
      "id": 585,
      "type": "Big Box",
      "name": "NORTH HILLS PA",
      "address": "4801 McKnight Rd",
      "address2": "Ste 30",
      "city": "Pittsburgh",
      "state": "PA",
      "zip": "15237",
      "fullZip": "15237-3423",
      "country": "US",
      "lat": 40.52348,
      "lng": -80.0068,
      "phone": "412-635-6110"
    },
    {
      "id": 584,
      "type": "Big Box",
      "name": "NORTH FAYETTE PA",
      "address": "430 Home Dr",
      "address2": null,
      "city": "Pittsburgh",
      "state": "PA",
      "zip": "15275",
      "fullZip": "15275-1204",
      "country": "US",
      "lat": 40.45265,
      "lng": -80.18156,
      "phone": "412-490-2080"
    },
    {
      "id": 595,
      "type": "Big Box",
      "name": "GREENSBURG PA",
      "address": "125 Donohoe Rd",
      "address2": null,
      "city": "Greensburg",
      "state": "PA",
      "zip": "15601",
      "fullZip": "15601-6986",
      "country": "US",
      "lat": 40.30491,
      "lng": -79.50947,
      "phone": "724-838-8901"
    },
    {
      "id": 1267,
      "type": "Big Box",
      "name": "JOHNSTOWN PA",
      "address": "430 Town Centre Dr",
      "address2": null,
      "city": "Johnstown",
      "state": "PA",
      "zip": "15904",
      "fullZip": "15904-2856",
      "country": "US",
      "lat": 40.27781,
      "lng": -78.84265,
      "phone": "814-262-4699"
    },
    {
      "id": 1812,
      "type": "Pooled Labor",
      "name": "PITTSBURGH POOLD LBR",
      "address": "1000 CRANBERY SQUARE DR",
      "address2": null,
      "city": "CRANBERRY TOWNSHIP",
      "state": "PA",
      "zip": "16066",
      "fullZip": "16066-6143",
      "country": "US",
      "lat": null,
      "lng": null,
      "phone": "999-999-9999"
    },
    {
      "id": 825,
      "type": "Big Box",
      "name": "CRANBERRY PA",
      "address": "1000 Cranberry Square Dr",
      "address2": null,
      "city": "Cranberry Township",
      "state": "PA",
      "zip": "16066",
      "fullZip": "16066-6143",
      "country": "US",
      "lat": 40.69121,
      "lng": -80.1047,
      "phone": "724-778-8300"
    },
    {
      "id": 597,
      "type": "Big Box",
      "name": "ERIE PA",
      "address": "6650 Peach St",
      "address2": null,
      "city": "Erie",
      "state": "PA",
      "zip": "16509",
      "fullZip": "16509-7710",
      "country": "US",
      "lat": 42.05709,
      "lng": -80.0922,
      "phone": "814-860-8487"
    },
    {
      "id": 1015,
      "type": "Big Box",
      "name": "ALTOONA PA",
      "address": "1721 Osgood Dr",
      "address2": null,
      "city": "Altoona",
      "state": "PA",
      "zip": "16602",
      "fullZip": "16602-6547",
      "country": "US",
      "lat": 40.49181,
      "lng": -78.38342,
      "phone": "814-949-6750"
    },
    {
      "id": 369,
      "type": "Big Box",
      "name": "STATE COLLEGE PA",
      "address": "1650 N Atherton St",
      "address2": null,
      "city": "State College",
      "state": "PA",
      "zip": "16803",
      "fullZip": "16803-1416",
      "country": "US",
      "lat": 40.80682,
      "lng": -77.89483,
      "phone": "814-237-5610"
    },
    {
      "id": 1478,
      "type": "Big Box",
      "name": "MECHANICSBURG PA",
      "address": "6416 Carlisle Pike",
      "address2": "Ste 3400",
      "city": "Mechanicsburg",
      "state": "PA",
      "zip": "17050",
      "fullZip": "17050-2787",
      "country": "US",
      "lat": 40.24764,
      "lng": -77.00646,
      "phone": "717-795-1741"
    },
    {
      "id": 547,
      "type": "Big Box",
      "name": "HARRISBURG EAST PA",
      "address": "5000 Jonestown Rd",
      "address2": null,
      "city": "Harrisburg",
      "state": "PA",
      "zip": "17112",
      "fullZip": "17112-2921",
      "country": "US",
      "lat": 40.30787240771199,
      "lng": -76.80546320714888,
      "phone": "717-651-0980"
    },
    {
      "id": 1087,
      "type": "Big Box",
      "name": "YORK PA",
      "address": "2865 Concord Rd",
      "address2": null,
      "city": "York",
      "state": "PA",
      "zip": "17402",
      "fullZip": "17402-7007",
      "country": "US",
      "lat": 39.98488,
      "lng": -76.67117,
      "phone": "717-840-4530"
    },
    {
      "id": 1197,
      "type": "Big Box",
      "name": "LANCASTER PA",
      "address": "1700 Fruitville Pike",
      "address2": "Ste G",
      "city": "Lancaster",
      "state": "PA",
      "zip": "17601",
      "fullZip": "17601-4098",
      "country": "US",
      "lat": 40.069057,
      "lng": -76.321803,
      "phone": "717-391-7459"
    },
    {
      "id": 1837,
      "type": "Pooled Labor",
      "name": "USO HARRISBURG",
      "address": "1700 Fruitville Pike",
      "address2": null,
      "city": "Lancaster",
      "state": "PA",
      "zip": "17601",
      "fullZip": "17601-4098",
      "country": "US",
      "lat": null,
      "lng": null,
      "phone": "999-999-9999"
    },
    {
      "id": 1794,
      "type": "Big Box",
      "name": "SELINSGROVE PA",
      "address": "110 Marketplace Blvd",
      "address2": null,
      "city": "Selinsgrove",
      "state": "PA",
      "zip": "17870",
      "fullZip": "17870-2400",
      "country": "US",
      "lat": 40.84081,
      "lng": -76.8315,
      "phone": "570-372-2639"
    },
    {
      "id": 1403,
      "type": "Big Box",
      "name": "BETHLEHEM PA",
      "address": "4413 Birkland Pl",
      "address2": null,
      "city": "Easton",
      "state": "PA",
      "zip": "18045",
      "fullZip": "18045-4701",
      "country": "US",
      "lat": 40.65766,
      "lng": -75.2858,
      "phone": "610-250-2689"
    },
    {
      "id": 587,
      "type": "Big Box",
      "name": "WHITEHALL PA",
      "address": "1504 Macarthur Rd",
      "address2": null,
      "city": "Whitehall",
      "state": "PA",
      "zip": "18052",
      "fullZip": "18052-5713",
      "country": "US",
      "lat": 40.62845,
      "lng": -75.48551,
      "phone": "610-432-6956"
    },
    {
      "id": 1442,
      "type": "Big Box",
      "name": "STROUDSBURG PA",
      "address": "300 Shoppes Stroud",
      "address2": null,
      "city": "Stroudsburg",
      "state": "PA",
      "zip": "18360",
      "fullZip": "18360-3166",
      "country": "US",
      "lat": 40.98911,
      "lng": -75.23324,
      "phone": "570-476-1421"
    },
    {
      "id": 341,
      "type": "Big Box",
      "name": "SCRANTON PA",
      "address": "959 Viewmont Dr",
      "address2": null,
      "city": "Dickson City",
      "state": "PA",
      "zip": "18519",
      "fullZip": "18519-1663",
      "country": "US",
      "lat": 41.4553,
      "lng": -75.65106,
      "phone": "570-346-8977"
    },
    {
      "id": 342,
      "type": "Big Box",
      "name": "WILKES BARRE PA",
      "address": "449 Arena Hub Plz",
      "address2": null,
      "city": "Wilkes Barre",
      "state": "PA",
      "zip": "18702",
      "fullZip": "18702-6839",
      "country": "US",
      "lat": 41.23896,
      "lng": -75.84081,
      "phone": "570-819-0719"
    },
    {
      "id": 1395,
      "type": "Big Box",
      "name": "QUAKERTOWN PA",
      "address": "646 N West End Blvd",
      "address2": null,
      "city": "Quakertown",
      "state": "PA",
      "zip": "18951",
      "fullZip": "18951-4100",
      "country": "US",
      "lat": 40.46087,
      "lng": -75.37182,
      "phone": "215-804-0039"
    },
    {
      "id": 9818,
      "type": "Virtual Experience",
      "name": "VS DPAD PHI 2448 DLV",
      "address": "510 STATION AVE",
      "address2": "WOODHAVEN INDUSTRIAL PARK",
      "city": "BENSALEM",
      "state": "PA",
      "zip": "19020",
      "fullZip": "19020-7142",
      "country": "US",
      "lat": null,
      "lng": null,
      "phone": "999-999-9999"
    },
    {
      "id": 577,
      "type": "Big Box",
      "name": "OXFORD VALLEY PA",
      "address": "310 Commerce Blvd",
      "address2": "The Court at Oxford Valley",
      "city": "Fairless Hills",
      "state": "PA",
      "zip": "19030",
      "fullZip": "19030-1024",
      "country": "US",
      "lat": 40.18847,
      "lng": -74.86542,
      "phone": "215-949-3006"
    },
    {
      "id": 582,
      "type": "Big Box",
      "name": "SPRINGFIELD PA",
      "address": "642 Baltimore Pike",
      "address2": null,
      "city": "Springfield",
      "state": "PA",
      "zip": "19064",
      "fullZip": "19064-3030",
      "country": "US",
      "lat": 39.92008,
      "lng": -75.32778,
      "phone": "610-604-7474"
    },
    {
      "id": 1838,
      "type": "Pooled Labor",
      "name": "USO PHILADELPHIA",
      "address": "1130 EASTON RD",
      "address2": "STE B",
      "city": "WILLOW GROVE",
      "state": "PA",
      "zip": "19090",
      "fullZip": "19090-1932",
      "country": "US",
      "lat": null,
      "lng": null,
      "phone": "999-999-9999"
    },
    {
      "id": 576,
      "type": "Big Box",
      "name": "WILLOW GROVE PA",
      "address": "1130 Easton Rd",
      "address2": null,
      "city": "Willow Grove",
      "state": "PA",
      "zip": "19090",
      "fullZip": "19090-1932",
      "country": "US",
      "lat": 40.15733,
      "lng": -75.12466,
      "phone": "215-784-7020"
    },
    {
      "id": 589,
      "type": "Big Box",
      "name": "NE PHILADELPHIA PA",
      "address": "9733 Roosevelt Blvd",
      "address2": null,
      "city": "Philadelphia",
      "state": "PA",
      "zip": "19114",
      "fullZip": "19114-1010",
      "country": "US",
      "lat": 40.082059284955434,
      "lng": -75.0235969642703,
      "phone": "215-676-7206"
    },
    {
      "id": 898,
      "type": "Big Box",
      "name": "S PHILADELPHIA PA",
      "address": "2300 S Christopher Columbus Bl",
      "address2": null,
      "city": "Philadelphia",
      "state": "PA",
      "zip": "19148",
      "fullZip": "19148-4206",
      "country": "US",
      "lat": 39.91565,
      "lng": -75.13889,
      "phone": "215-336-2212"
    },
    {
      "id": 1764,
      "type": "Big Box",
      "name": "DOWNINGTOWN PA",
      "address": "10 Quarry Rd",
      "address2": "Spc G1",
      "city": "Downingtown",
      "state": "PA",
      "zip": "19335",
      "fullZip": "19335-3420",
      "country": "US",
      "lat": 40.017082779700075,
      "lng": -75.67650029053964,
      "phone": "610-873-2312"
    },
    {
      "id": 2178,
      "type": "Yardbird Showroom",
      "name": "YB King o Prussia PA",
      "address": "340 W Dekalb Pike",
      "address2": null,
      "city": "King of Prussia",
      "state": "PA",
      "zip": "19406",
      "fullZip": "19406-4901",
      "country": "US",
      "lat": 40.09182,
      "lng": -75.37233,
      "phone": "999-999-9999"
    },
    {
      "id": 1193,
      "type": "Big Box",
      "name": "COLLEGEVILLE PA",
      "address": "400 Front St",
      "address2": "Ste 4",
      "city": "Collegeville",
      "state": "PA",
      "zip": "19426",
      "fullZip": "19426-4909",
      "country": "US",
      "lat": 40.16357,
      "lng": -75.48094,
      "phone": "610-409-7879"
    },
    {
      "id": 525,
      "type": "Big Box",
      "name": "MONTGOMERYVILLE  PA",
      "address": "801 Bethlehem Pike",
      "address2": null,
      "city": "North Wales",
      "state": "PA",
      "zip": "19454",
      "fullZip": "19454-2071",
      "country": "US",
      "lat": 40.2376,
      "lng": -75.23856,
      "phone": "215-855-3528"
    },
    {
      "id": 448,
      "type": "Big Box",
      "name": "PLYMOUTH MEETING PA",
      "address": "2010 Chemical Rd",
      "address2": null,
      "city": "Plymouth Meeting",
      "state": "PA",
      "zip": "19462",
      "fullZip": "19462-1707",
      "country": "US",
      "lat": 40.10288,
      "lng": -75.29518,
      "phone": "610-567-2835"
    },
    {
      "id": 6547,
      "type": "Custom",
      "name": "PHILADELPHIA CUSTOM",
      "address": "2010 Chemical Rd",
      "address2": null,
      "city": "Plymouth Meeting",
      "state": "PA",
      "zip": "19462",
      "fullZip": "19462-1707",
      "country": "US",
      "lat": null,
      "lng": null,
      "phone": "999-999-9999"
    },
    {
      "id": 580,
      "type": "Big Box",
      "name": "READING PA",
      "address": "1701 Crossing Dr",
      "address2": "Berkshire Crossing",
      "city": "Wyomissing",
      "state": "PA",
      "zip": "19610",
      "fullZip": "19610-1212",
      "country": "US",
      "lat": 40.3482,
      "lng": -75.96624,
      "phone": "610-375-3340"
    },
    {
      "id": 1480,
      "type": "Big Box",
      "name": "CHRISTIANA DE",
      "address": "2700 Fashion Center Blvd",
      "address2": null,
      "city": "Newark",
      "state": "DE",
      "zip": "19702",
      "fullZip": "19702-3244",
      "country": "US",
      "lat": 39.67263792125895,
      "lng": -75.6469133872873,
      "phone": "302-369-7015"
    },
    {
      "id": 465,
      "type": "Big Box",
      "name": "CONCORD PIKE DE",
      "address": "4807 Concord Pike",
      "address2": null,
      "city": "Wilmington",
      "state": "DE",
      "zip": "19803",
      "fullZip": "19803-1410",
      "country": "US",
      "lat": 39.82647,
      "lng": -75.54269,
      "phone": "302-477-0305"
    },
    {
      "id": 842,
      "type": "Big Box",
      "name": "DOVER DE",
      "address": "1165 N Dupont Hwy",
      "address2": null,
      "city": "Dover",
      "state": "DE",
      "zip": "19901",
      "fullZip": "19901-2016",
      "country": "US",
      "lat": 39.18922,
      "lng": -75.53799,
      "phone": "302-677-0200"
    },
    {
      "id": 1092,
      "type": "Big Box",
      "name": "COLUMBIA HEIGHTS DC",
      "address": "3100 14th St NW",
      "address2": "STE 203",
      "city": "Washington",
      "state": "DC",
      "zip": "20010",
      "fullZip": "20010-2415",
      "country": "US",
      "lat": 38.929553548092706,
      "lng": -77.03323712783163,
      "phone": "202-387-6150"
    },
    {
      "id": 2655,
      "type": "Outlet Center",
      "name": "MANASSAS OUTLET",
      "address": "7665 Sudley Rd",
      "address2": null,
      "city": "Manassas",
      "state": "VA",
      "zip": "20109",
      "fullZip": "20109-2811",
      "country": "US",
      "lat": 38.79072,
      "lng": -77.51333,
      "phone": "703-396-6922"
    },
    {
      "id": 1449,
      "type": "Big Box",
      "name": "GAINESVILLE VA",
      "address": "13093 Gateway Center Dr",
      "address2": null,
      "city": "Gainesville",
      "state": "VA",
      "zip": "20155",
      "fullZip": "20155-3092",
      "country": "US",
      "lat": 38.7939,
      "lng": -77.60362,
      "phone": "571-248-4944"
    },
    {
      "id": 146,
      "type": "Big Box",
      "name": "STERLING VA",
      "address": "45575 Dulles Eastern Plz",
      "address2": "Ste 188",
      "city": "Sterling",
      "state": "VA",
      "zip": "20166",
      "fullZip": "20166-8924",
      "country": "US",
      "lat": 39.02327,
      "lng": -77.42217,
      "phone": "703-430-2150"
    },
    {
      "id": 1022,
      "type": "Big Box",
      "name": "LEESBURG VA",
      "address": "609 Potomac Station Dr",
      "address2": null,
      "city": "Leesburg",
      "state": "VA",
      "zip": "20176",
      "fullZip": "20176-1817",
      "country": "US",
      "lat": 39.09757,
      "lng": -77.52822,
      "phone": "703-669-4100"
    },
    {
      "id": 446,
      "type": "Big Box",
      "name": "WALDORF MD",
      "address": "11725 Berry Rd",
      "address2": null,
      "city": "Waldorf",
      "state": "MD",
      "zip": "20603",
      "fullZip": "20603-5967",
      "country": "US",
      "lat": 38.62682,
      "lng": -76.91233,
      "phone": "301-632-5740"
    },
    {
      "id": 1003,
      "type": "Big Box",
      "name": "LEXINGTON PARK MD",
      "address": "45235 Worth Ave",
      "address2": null,
      "city": "California",
      "state": "MD",
      "zip": "20619",
      "fullZip": "20619-2422",
      "country": "US",
      "lat": 38.2968,
      "lng": -76.51028,
      "phone": "301-737-6252"
    },
    {
      "id": 1776,
      "type": "Big Box",
      "name": "WOODMORE TWNE CTR MD",
      "address": "2300 Petrie Ln",
      "address2": null,
      "city": "Lanham",
      "state": "MD",
      "zip": "20706",
      "fullZip": "20706-1623",
      "country": "US",
      "lat": 38.92193,
      "lng": -76.84587,
      "phone": "301-341-6739"
    },
    {
      "id": 1810,
      "type": "Pooled Labor",
      "name": "USO DC BALTIMORE",
      "address": "14160 BALTIMORE AVE",
      "address2": null,
      "city": "LAUREL",
      "state": "MD",
      "zip": "20707",
      "fullZip": "20707-5007",
      "country": "US",
      "lat": null,
      "lng": null,
      "phone": "999-999-9999"
    },
    {
      "id": 265,
      "type": "Big Box",
      "name": "LAUREL MD",
      "address": "14160 Baltimore Ave",
      "address2": "Laurel Lakes Centre",
      "city": "Laurel",
      "state": "MD",
      "zip": "20707",
      "fullZip": "20707-5007",
      "country": "US",
      "lat": 39.08459,
      "lng": -76.86461,
      "phone": "301-497-1890"
    },
    {
      "id": 2176,
      "type": "Yardbird Showroom",
      "name": "YB North Bethesda MD",
      "address": "11610 Rockville Pike",
      "address2": null,
      "city": "Rockville",
      "state": "MD",
      "zip": "20852",
      "fullZip": "20852-2703",
      "country": "US",
      "lat": 39.04765,
      "lng": -77.11324,
      "phone": "999-999-9999"
    },
    {
      "id": 293,
      "type": "Big Box",
      "name": "ROCKVILLE MD",
      "address": "1200 Rockville Pike",
      "address2": null,
      "city": "Rockville",
      "state": "MD",
      "zip": "20852",
      "fullZip": "20852-1410",
      "country": "US",
      "lat": 39.06994,
      "lng": -77.13014,
      "phone": "301-984-1479"
    },
    {
      "id": 819,
      "type": "Big Box",
      "name": "GERMANTOWN MD",
      "address": "20914 Frederick Rd",
      "address2": null,
      "city": "Germantown",
      "state": "MD",
      "zip": "20876",
      "fullZip": "20876-4134",
      "country": "US",
      "lat": 39.2,
      "lng": -77.25166,
      "phone": "240-686-1221"
    },
    {
      "id": 1129,
      "type": "Big Box",
      "name": "WHEATON MD",
      "address": "10901 Georgia Ave",
      "address2": null,
      "city": "Wheaton",
      "state": "MD",
      "zip": "20902",
      "fullZip": "20902-4755",
      "country": "US",
      "lat": 39.03454,
      "lng": -77.04863,
      "phone": "301-942-1877"
    },
    {
      "id": 296,
      "type": "Big Box",
      "name": "BEL AIR MD",
      "address": "602 Boulton St",
      "address2": "Harford Mall Annex",
      "city": "Bel Air",
      "state": "MD",
      "zip": "21014",
      "fullZip": "21014-4488",
      "country": "US",
      "lat": 39.52858,
      "lng": -76.35952,
      "phone": "410-893-6101"
    },
    {
      "id": 290,
      "type": "Big Box",
      "name": "GLEN BURNIE MD",
      "address": "6722 Ritchie Hwy",
      "address2": null,
      "city": "Glen Burnie",
      "state": "MD",
      "zip": "21061",
      "fullZip": "21061-2319",
      "country": "US",
      "lat": 39.19076,
      "lng": -76.6154,
      "phone": "410-787-3139"
    },
    {
      "id": 263,
      "type": "Big Box",
      "name": "COLUMBIA MD",
      "address": "8251 Gateway Overlook Dr",
      "address2": null,
      "city": "Elkridge",
      "state": "MD",
      "zip": "21075",
      "fullZip": "21075-6454",
      "country": "US",
      "lat": 39.18456,
      "lng": -76.79364,
      "phone": "410-872-9448"
    },
    {
      "id": 6543,
      "type": "Custom",
      "name": "MARYLAND CUSTOM",
      "address": "8251 Gateway Overlook Dr",
      "address2": null,
      "city": "Elkridge",
      "state": "MD",
      "zip": "21075",
      "fullZip": "21075-6454",
      "country": "US",
      "lat": null,
      "lng": null,
      "phone": "999-999-9999"
    },
    {
      "id": 9713,
      "type": "Virtual Experience",
      "name": "VS DDC 722 BAL PKUP",
      "address": "6680 BUSINESS PKWY",
      "address2": null,
      "city": "ELKRIDGE",
      "state": "MD",
      "zip": "21075",
      "fullZip": "21075-6349",
      "country": "US",
      "lat": null,
      "lng": null,
      "phone": "999-999-9999"
    },
    {
      "id": 9732,
      "type": "Virtual Experience",
      "name": "VS DDC 722 BAL .COM",
      "address": "6680 BUSINESS PKWY",
      "address2": null,
      "city": "ELKRIDGE",
      "state": "MD",
      "zip": "21075",
      "fullZip": "21075-6349",
      "country": "US",
      "lat": null,
      "lng": null,
      "phone": "999-999-9999"
    },
    {
      "id": 9751,
      "type": "Virtual Experience",
      "name": "VS DDC 722 BLT DLV",
      "address": "6680 BUSINESS PKWY",
      "address2": null,
      "city": "ELKRIDGE",
      "state": "MD",
      "zip": "21075",
      "fullZip": "21075-6349",
      "country": "US",
      "lat": null,
      "lng": null,
      "phone": "999-999-9999"
    },
    {
      "id": 9785,
      "type": "Virtual Experience",
      "name": "VS DDC 722 PAC",
      "address": "6680 BUSINESS PKWY",
      "address2": null,
      "city": "ELKRIDGE",
      "state": "MD",
      "zip": "21075",
      "fullZip": "21075-6349",
      "country": "US",
      "lat": null,
      "lng": null,
      "phone": "999-999-9999"
    },
    {
      "id": 149,
      "type": "Big Box",
      "name": "TOWSON MD",
      "address": "1717 York Rd",
      "address2": null,
      "city": "Timonium",
      "state": "MD",
      "zip": "21093",
      "fullZip": "21093-5607",
      "country": "US",
      "lat": 39.42793,
      "lng": -76.61888,
      "phone": "410-561-2260"
    },
    {
      "id": 1436,
      "type": "Big Box",
      "name": "OWINGS MILLS MD",
      "address": "10400 Owings Mills Blvd",
      "address2": null,
      "city": "Owings Mills",
      "state": "MD",
      "zip": "21117",
      "fullZip": "21117-7810",
      "country": "US",
      "lat": 39.41976,
      "lng": -76.77919,
      "phone": "443-394-0620"
    },
    {
      "id": 622,
      "type": "Repair Depot",
      "name": "SVC",
      "address": "7550 Perryman Ct",
      "address2": "DOCK DOOR 902",
      "city": "Curtis Bay",
      "state": "MD",
      "zip": "21226",
      "fullZip": "21226-1788",
      "country": "US",
      "lat": 39.18664,
      "lng": -76.55285,
      "phone": "410-579-8113"
    },
    {
      "id": 722,
      "type": null,
      "name": "DDC-BALTIMORE",
      "address": "7550 Perryman Ct",
      "address2": null,
      "city": "Curtis Bay",
      "state": "MD",
      "zip": "21226",
      "fullZip": "21226-1788",
      "country": "US",
      "lat": 39.1717551,
      "lng": -76.5513519,
      "phone": "410-579-8869"
    },
    {
      "id": 9044,
      "type": null,
      "name": "VDDC 722 BALTIMORE",
      "address": "7550 Perryman Ct",
      "address2": null,
      "city": "Curtis Bay",
      "state": "MD",
      "zip": "21226",
      "fullZip": "21226-1788",
      "country": "US",
      "lat": 39.1762,
      "lng": -76.54946,
      "phone": "410-579-8869"
    },
    {
      "id": 159,
      "type": "Big Box",
      "name": "WHITE MARSH MD",
      "address": "5200 Campbell Blvd",
      "address2": "Nottingham Square",
      "city": "Nottingham",
      "state": "MD",
      "zip": "21236",
      "fullZip": "21236-4983",
      "country": "US",
      "lat": 39.37254,
      "lng": -76.45395,
      "phone": "410-931-3107"
    },
    {
      "id": 163,
      "type": "Big Box",
      "name": "ANNAPOLIS MD",
      "address": "2643 Housley Rd",
      "address2": "Gateway Village Shopping Ctr",
      "city": "Annapolis",
      "state": "MD",
      "zip": "21401",
      "fullZip": "21401-7030",
      "country": "US",
      "lat": 38.98586,
      "lng": -76.55501,
      "phone": "410-571-9011"
    },
    {
      "id": 427,
      "type": "Big Box",
      "name": "FREDERICK MD",
      "address": "7300 Guilford Dr",
      "address2": null,
      "city": "Frederick",
      "state": "MD",
      "zip": "21704",
      "fullZip": "21704-5130",
      "country": "US",
      "lat": 39.39725,
      "lng": -77.41602,
      "phone": "301-662-6130"
    },
    {
      "id": 1445,
      "type": "Big Box",
      "name": "HAGERSTOWN MD",
      "address": "18053 Garland Groh Blvd",
      "address2": null,
      "city": "Hagerstown",
      "state": "MD",
      "zip": "21740",
      "fullZip": "21740-2064",
      "country": "US",
      "lat": 39.66082,
      "lng": -77.744,
      "phone": "240-420-8523"
    },
    {
      "id": 772,
      "type": "Big Box",
      "name": "SALISBURY MD",
      "address": "109 E North Pointe Dr",
      "address2": null,
      "city": "Salisbury",
      "state": "MD",
      "zip": "21804",
      "fullZip": "21804-2283",
      "country": "US",
      "lat": 38.41724,
      "lng": -75.56405,
      "phone": "410-334-6771"
    },
    {
      "id": 273,
      "type": "Big Box",
      "name": "FAIRLAKES VA",
      "address": "13058 Fairlakes Shopping Ctr",
      "address2": null,
      "city": "Fairfax",
      "state": "VA",
      "zip": "22033",
      "fullZip": "22033-5180",
      "country": "US",
      "lat": 38.85716,
      "lng": -77.39622,
      "phone": "703-631-3332"
    },
    {
      "id": 283,
      "type": "Big Box",
      "name": "BAILEYS CROSSROAD VA",
      "address": "5799 Leesburg Pike",
      "address2": "RM D",
      "city": "Falls Church",
      "state": "VA",
      "zip": "22041",
      "fullZip": "22041-2906",
      "country": "US",
      "lat": 38.8505,
      "lng": -77.13119,
      "phone": "703-671-0184"
    },
    {
      "id": 269,
      "type": "Big Box",
      "name": "SPRINGFIELD VA",
      "address": "6555 Frontier Dr",
      "address2": null,
      "city": "Springfield",
      "state": "VA",
      "zip": "22150",
      "fullZip": "22150-1415",
      "country": "US",
      "lat": 38.77423,
      "lng": -77.16965,
      "phone": "703-922-4980"
    },
    {
      "id": 6544,
      "type": "Custom",
      "name": "BALTIMORE CUSTOM",
      "address": "6555 Frontier Dr",
      "address2": null,
      "city": "Springfield",
      "state": "VA",
      "zip": "22150",
      "fullZip": "22150-1415",
      "country": "US",
      "lat": null,
      "lng": null,
      "phone": "999-999-9999"
    },
    {
      "id": 2177,
      "type": "Yardbird Showroom",
      "name": "YB Tysons VA",
      "address": "1929 Old Gallows Rd",
      "address2": null,
      "city": "Vienna",
      "state": "VA",
      "zip": "22182",
      "fullZip": "22182-3924",
      "country": "US",
      "lat": 38.91115,
      "lng": -77.22245,
      "phone": "999-999-9999"
    },
    {
      "id": 397,
      "type": "Big Box",
      "name": "TYSONS CORNER VA",
      "address": "8449 Leesburg Pike",
      "address2": null,
      "city": "Vienna",
      "state": "VA",
      "zip": "22182",
      "fullZip": "22182-2404",
      "country": "US",
      "lat": 38.92427,
      "lng": -77.23953,
      "phone": "703-748-9814"
    },
    {
      "id": 287,
      "type": "Big Box",
      "name": "POTOMAC MILLS VA",
      "address": "2730 Prince William Pkwy",
      "address2": null,
      "city": "Woodbridge",
      "state": "VA",
      "zip": "22192",
      "fullZip": "22192-4135",
      "country": "US",
      "lat": 38.65217,
      "lng": -77.29523,
      "phone": "703-490-7499"
    },
    {
      "id": 276,
      "type": "Big Box",
      "name": "PENTAGON CITY VA",
      "address": "1201 S Hayes St",
      "address2": "Ste B",
      "city": "Arlington",
      "state": "VA",
      "zip": "22202",
      "fullZip": "22202-2700",
      "country": "US",
      "lat": 38.86147,
      "lng": -77.05831,
      "phone": "703-414-7090"
    },
    {
      "id": 493,
      "type": "Big Box",
      "name": "POTOMAC YARD VA",
      "address": "3401 Richmond Hwy",
      "address2": null,
      "city": "Alexandria",
      "state": "VA",
      "zip": "22305",
      "fullZip": "22305-3114",
      "country": "US",
      "lat": 38.83608,
      "lng": -77.04947,
      "phone": "703-519-0940"
    },
    {
      "id": 166,
      "type": "Big Box",
      "name": "FREDERICKSBURG VA",
      "address": "1541 Carl D Silver Pkwy",
      "address2": "Central Park Shopping Center",
      "city": "Fredericksburg",
      "state": "VA",
      "zip": "22401",
      "fullZip": "22401-4921",
      "country": "US",
      "lat": 38.30295,
      "lng": -77.50472,
      "phone": "540-785-2200"
    },
    {
      "id": 1809,
      "type": "Pooled Labor",
      "name": "DC BLT Z1 2 POLD LBR",
      "address": "1541 CARL D SILVER PKWY",
      "address2": null,
      "city": "FREDERICKSBURG",
      "state": "VA",
      "zip": "22401",
      "fullZip": "22401-4921",
      "country": "US",
      "lat": null,
      "lng": null,
      "phone": "703-257-9216"
    },
    {
      "id": 1086,
      "type": "Big Box",
      "name": "WINCHESTER VA",
      "address": "601 East Jubal Early Dr",
      "address2": null,
      "city": "Winchester",
      "state": "VA",
      "zip": "22601",
      "fullZip": "22601-5178",
      "country": "US",
      "lat": 39.16421,
      "lng": -78.16511,
      "phone": "540-723-6179"
    },
    {
      "id": 1534,
      "type": "Big Box",
      "name": "HARRISONBURG VA",
      "address": "259 Burgess Rd",
      "address2": null,
      "city": "Harrisonburg",
      "state": "VA",
      "zip": "22801",
      "fullZip": "22801-3718",
      "country": "US",
      "lat": 38.43291,
      "lng": -78.85294,
      "phone": "540-574-9549"
    },
    {
      "id": 860,
      "type": "Big Box",
      "name": "CHARLOTTESVILLE VA",
      "address": "1615 Emmet St N",
      "address2": null,
      "city": "Charlottesville",
      "state": "VA",
      "zip": "22901",
      "fullZip": "22901-2808",
      "country": "US",
      "lat": 38.05844,
      "lng": -78.49666,
      "phone": "434-977-1578"
    },
    {
      "id": 1013,
      "type": "Big Box",
      "name": "GLEN ALLEN VA",
      "address": "9901 Brook Rd",
      "address2": null,
      "city": "Glen Allen",
      "state": "VA",
      "zip": "23059",
      "fullZip": "23059-6502",
      "country": "US",
      "lat": 37.66922,
      "lng": -77.46003,
      "phone": "804-515-1340"
    },
    {
      "id": 423,
      "type": "Big Box",
      "name": "WEST BROAD VA",
      "address": "11200 W Broad St",
      "address2": null,
      "city": "Glen Allen",
      "state": "VA",
      "zip": "23060",
      "fullZip": "23060-5815",
      "country": "US",
      "lat": 37.65084,
      "lng": -77.60086,
      "phone": "804-364-5900"
    },
    {
      "id": 1444,
      "type": "Big Box",
      "name": "WILLIAMSBURG VA",
      "address": "210 Whittakers Trace",
      "address2": null,
      "city": "Williamsburg",
      "state": "VA",
      "zip": "23185",
      "fullZip": "23185-5868",
      "country": "US",
      "lat": 37.25769,
      "lng": -76.64194,
      "phone": "757-220-1352"
    },
    {
      "id": 422,
      "type": "Big Box",
      "name": "CHESTERFIELD VA",
      "address": "1560 W Koger Center Blvd",
      "address2": null,
      "city": "Richmond",
      "state": "VA",
      "zip": "23235",
      "fullZip": "23235-4721",
      "country": "US",
      "lat": 37.51277,
      "lng": -77.61277,
      "phone": "804-897-8080"
    },
    {
      "id": 421,
      "type": "Big Box",
      "name": "CHESAPEAKE VA",
      "address": "1340 Greenbrier Pkwy",
      "address2": null,
      "city": "Chesapeake",
      "state": "VA",
      "zip": "23320",
      "fullZip": "23320-2898",
      "country": "US",
      "lat": 36.77363,
      "lng": -76.23088,
      "phone": "757-549-4635"
    },
    {
      "id": 766,
      "type": "Big Box",
      "name": "CHESAPEAKE SQUARE VA",
      "address": "4107 Portsmouth Blvd",
      "address2": null,
      "city": "Chesapeake",
      "state": "VA",
      "zip": "23321",
      "fullZip": "23321-2140",
      "country": "US",
      "lat": 36.82167,
      "lng": -76.40955,
      "phone": "757-465-2306"
    },
    {
      "id": 1460,
      "type": "Big Box",
      "name": "PRINCESS ANNE VA",
      "address": "3334 Princess Anne Rd",
      "address2": null,
      "city": "Virginia Beach",
      "state": "VA",
      "zip": "23456",
      "fullZip": "23456-2522",
      "country": "US",
      "lat": 36.77376,
      "lng": -76.08708,
      "phone": "757-368-5312"
    },
    {
      "id": 420,
      "type": "Big Box",
      "name": "VIRGINIA BEACH VA",
      "address": "217 Independence Blvd",
      "address2": null,
      "city": "Virginia Beach",
      "state": "VA",
      "zip": "23462",
      "fullZip": "23462-2902",
      "country": "US",
      "lat": 36.83632,
      "lng": -76.13867,
      "phone": "757-493-9232"
    },
    {
      "id": 479,
      "type": "Big Box",
      "name": "NEWPORT NEWS VA",
      "address": "12151 Jefferson Ave",
      "address2": null,
      "city": "Newport News",
      "state": "VA",
      "zip": "23602",
      "fullZip": "23602-6916",
      "country": "US",
      "lat": 37.10817,
      "lng": -76.49869,
      "phone": "757-930-8945"
    },
    {
      "id": 788,
      "type": "Big Box",
      "name": "COLONIAL HEIGHTS VA",
      "address": "723 Southpark Blvd",
      "address2": "Ste 8",
      "city": "Colonial Heights",
      "state": "VA",
      "zip": "23834",
      "fullZip": "23834-3628",
      "country": "US",
      "lat": 37.25021,
      "lng": -77.38666,
      "phone": "804-504-0677"
    },
    {
      "id": 434,
      "type": "Big Box",
      "name": "ROANOKE VA",
      "address": "4707 Valley View Blvd NW",
      "address2": null,
      "city": "Roanoke",
      "state": "VA",
      "zip": "24012",
      "fullZip": "24012-2000",
      "country": "US",
      "lat": 37.29925,
      "lng": -79.95955,
      "phone": "540-362-4080"
    },
    {
      "id": 1149,
      "type": "Big Box",
      "name": "CHRISTIANSBURG VA",
      "address": "105 Shoppers Way",
      "address2": null,
      "city": "Christiansburg",
      "state": "VA",
      "zip": "24073",
      "fullZip": "24073-6686",
      "country": "US",
      "lat": 37.16721,
      "lng": -80.424,
      "phone": "540-382-9517"
    },
    {
      "id": 9707,
      "type": "Virtual Experience",
      "name": "VS RDC 84 STN PKUP",
      "address": "1 INDUSTRY WAY",
      "address2": null,
      "city": "STAUNTON",
      "state": "VA",
      "zip": "24401",
      "fullZip": "24401-9051",
      "country": "US",
      "lat": null,
      "lng": null,
      "phone": "999-999-9999"
    },
    {
      "id": 9745,
      "type": "Virtual Experience",
      "name": "VS RDC 84 STN DLV",
      "address": "1 INDUSTRY WAY",
      "address2": null,
      "city": "STAUNTON",
      "state": "VA",
      "zip": "24401",
      "fullZip": "24401-9051",
      "country": "US",
      "lat": null,
      "lng": null,
      "phone": "999-999-9999"
    },
    {
      "id": 9772,
      "type": "Virtual Experience",
      "name": "VS RDC 84 STN .COM",
      "address": "1 INDUSTRY WAY",
      "address2": null,
      "city": "STAUNTON",
      "state": "VA",
      "zip": "24401",
      "fullZip": "24401-9051",
      "country": "US",
      "lat": null,
      "lng": null,
      "phone": "999-999-9999"
    },
    {
      "id": 9794,
      "type": "Virtual Experience",
      "name": "VS RDC 84 PAC",
      "address": "1 INDUSTRY WAY",
      "address2": null,
      "city": "STAUNTON",
      "state": "VA",
      "zip": "24401",
      "fullZip": "24401-9051",
      "country": "US",
      "lat": null,
      "lng": null,
      "phone": "999-999-9999"
    },
    {
      "id": 444,
      "type": "Big Box",
      "name": "LYNCHBURG VA",
      "address": "4024 Wards Rd",
      "address2": "Ste A",
      "city": "Lynchburg",
      "state": "VA",
      "zip": "24502",
      "fullZip": "24502-2496",
      "country": "US",
      "lat": 37.34923,
      "lng": -79.18898,
      "phone": "434-239-9885"
    },
    {
      "id": 1266,
      "type": "Big Box",
      "name": "CHARLESTON WV",
      "address": "39 RHL Blvd",
      "address2": null,
      "city": "Charleston",
      "state": "WV",
      "zip": "25309",
      "fullZip": "25309-8276",
      "country": "US",
      "lat": 38.33651,
      "lng": -81.71148,
      "phone": "304-744-7270"
    },
    {
      "id": 1528,
      "type": "Big Box",
      "name": "MARTINSBURG WV",
      "address": "276 Retail Commons Pkwy",
      "address2": null,
      "city": "Martinsburg",
      "state": "WV",
      "zip": "25403",
      "fullZip": "25403-6177",
      "country": "US",
      "lat": 39.4398,
      "lng": -77.99285,
      "phone": "304-262-5538"
    },
    {
      "id": 573,
      "type": "Big Box",
      "name": "HUNTINGTON WV",
      "address": "6 Mall Rd",
      "address2": null,
      "city": "Barboursville",
      "state": "WV",
      "zip": "25504",
      "fullZip": "25504-1821",
      "country": "US",
      "lat": 38.41876,
      "lng": -82.26338,
      "phone": "304-733-0443"
    },
    {
      "id": 1798,
      "type": "Big Box",
      "name": "WHEELING WV",
      "address": "150 Satterfield Dr",
      "address2": null,
      "city": "Triadelphia",
      "state": "WV",
      "zip": "26059",
      "fullZip": "26059-1158",
      "country": "US",
      "lat": 40.05771,
      "lng": -80.59853,
      "phone": "304-243-9979"
    },
    {
      "id": 1269,
      "type": "Big Box",
      "name": "PARKERSBURG WV",
      "address": "4000 Murdoch Ave",
      "address2": null,
      "city": "Parkersburg",
      "state": "WV",
      "zip": "26105",
      "fullZip": "26105-4057",
      "country": "US",
      "lat": 39.30121,
      "lng": -81.54691,
      "phone": "681-315-6605"
    },
    {
      "id": 832,
      "type": "Big Box",
      "name": "MORGANTOWN WV",
      "address": "3294 University Town Centre Dr",
      "address2": null,
      "city": "Morgantown",
      "state": "WV",
      "zip": "26501",
      "fullZip": "26501-2466",
      "country": "US",
      "lat": 39.65089,
      "lng": -80.00518,
      "phone": "304-598-9052"
    },
    {
      "id": 158,
      "type": "Big Box",
      "name": "WINSTON-SALEM NC",
      "address": "1980 Griffith Rd",
      "address2": null,
      "city": "Winston-Salem",
      "state": "NC",
      "zip": "27103",
      "fullZip": "27103-6440",
      "country": "US",
      "lat": 36.06471,
      "lng": -80.3084,
      "phone": "336-768-1277"
    },
    {
      "id": 648,
      "type": "Big Box",
      "name": "BURLINGTON NC",
      "address": "1465 University Dr",
      "address2": null,
      "city": "Burlington",
      "state": "NC",
      "zip": "27215",
      "fullZip": "27215-8768",
      "country": "US",
      "lat": 36.06551,
      "lng": -79.52172,
      "phone": "336-584-0297"
    },
    {
      "id": 155,
      "type": "Big Box",
      "name": "GREENSBORO NC",
      "address": "1701 S 40 Dr",
      "address2": null,
      "city": "Greensboro",
      "state": "NC",
      "zip": "27407",
      "fullZip": "27407-2653",
      "country": "US",
      "lat": 36.05396,
      "lng": -79.8894,
      "phone": "336-297-1242"
    },
    {
      "id": 147,
      "type": "Big Box",
      "name": "CARY NC",
      "address": "237 Crossroads Blvd",
      "address2": null,
      "city": "Cary",
      "state": "NC",
      "zip": "27518",
      "fullZip": "27518-6893",
      "country": "US",
      "lat": 35.76225,
      "lng": -78.73976,
      "phone": "919-851-1868"
    },
    {
      "id": 6575,
      "type": "Custom",
      "name": "NRTH CAROLINA CUSTOM",
      "address": "237 Crossroads Blvd",
      "address2": null,
      "city": "Cary",
      "state": "NC",
      "zip": "27518",
      "fullZip": "27518-6893",
      "country": "US",
      "lat": null,
      "lng": null,
      "phone": "999-999-9999"
    },
    {
      "id": 574,
      "type": "Big Box",
      "name": "GARNER NC",
      "address": "120 Shenstone Ln",
      "address2": null,
      "city": "Garner",
      "state": "NC",
      "zip": "27529",
      "fullZip": "27529-6902",
      "country": "US",
      "lat": 35.69545,
      "lng": -78.58364,
      "phone": "919-772-2025"
    },
    {
      "id": 1492,
      "type": "Big Box",
      "name": "KNIGHTDALE NC",
      "address": "214 Hinton Oaks Blvd",
      "address2": null,
      "city": "Knightdale",
      "state": "NC",
      "zip": "27545",
      "fullZip": "27545-8191",
      "country": "US",
      "lat": 35.79639,
      "lng": -78.51278,
      "phone": "919-804-6039"
    },
    {
      "id": 299,
      "type": "Big Box",
      "name": "CRABTREE NC",
      "address": "4325 Glenwood Ave",
      "address2": "Ste 3006",
      "city": "Raleigh",
      "state": "NC",
      "zip": "27612",
      "fullZip": "27612-4525",
      "country": "US",
      "lat": 35.8377,
      "lng": -78.67622,
      "phone": "919-782-4323"
    },
    {
      "id": 821,
      "type": "Big Box",
      "name": "RALEIGH NC",
      "address": "6280 Capital Blvd",
      "address2": null,
      "city": "Raleigh",
      "state": "NC",
      "zip": "27616",
      "fullZip": "27616-2924",
      "country": "US",
      "lat": 35.869521,
      "lng": -78.5790376,
      "phone": "919-874-2039"
    },
    {
      "id": 9831,
      "type": "Virtual Experience",
      "name": "VS DPAD 2318 RAL DLV",
      "address": "1955 TW ALEXANDER DR",
      "address2": null,
      "city": "DURHAM",
      "state": "NC",
      "zip": "27703",
      "fullZip": "27703-0398",
      "country": "US",
      "lat": null,
      "lng": null,
      "phone": "999-999-9999"
    },
    {
      "id": 160,
      "type": "Big Box",
      "name": "DURHAM NC",
      "address": "5454 New Hope Commons Dr",
      "address2": "New Hope Commons",
      "city": "Durham",
      "state": "NC",
      "zip": "27707",
      "fullZip": "27707-9716",
      "country": "US",
      "lat": 35.9535,
      "lng": -78.99886,
      "phone": "919-403-2333"
    },
    {
      "id": 1051,
      "type": "Big Box",
      "name": "DURHAM SOUTHPOINT NC",
      "address": "7001 Fayetteville Rd",
      "address2": "Ste 113",
      "city": "Durham",
      "state": "NC",
      "zip": "27713",
      "fullZip": "27713-9643",
      "country": "US",
      "lat": 35.90191,
      "lng": -78.9367,
      "phone": "919-544-4354"
    },
    {
      "id": 386,
      "type": "Big Box",
      "name": "GREENVILLE NC",
      "address": "3140 Evans St",
      "address2": null,
      "city": "Greenville",
      "state": "NC",
      "zip": "27834",
      "fullZip": "27834-6935",
      "country": "US",
      "lat": 35.57451,
      "lng": -77.3848,
      "phone": "252-321-4984"
    },